[{"id":"a368a3a1e7c3","type":"hospital","name":"TTSH Integrated Care Hub","lat":1.323695,"lon":103.846335,"addr":"1 TAN TOCK SENG LINK TTSH INTEGRATED CARE HUB"},{"id":"28427d0325f3","type":"hospital","name":"ALEXANDRA HOSPITAL","lat":1.285481,"lon":103.800181,"addr":"378 ALEXANDRA ROAD ALEXANDRA HOSPITAL"},{"id":"3b49f6bff241","type":"hospital","name":"ANG MO KIO - THYE HUA KWAN HOSPITAL","lat":1.384032,"lon":103.840357,"addr":"17 ANG MO KIO AVENUE 9"},{"id":"c9ba457ebf0e","type":"hospital","name":"CHANGI GENERAL HOSPITAL","lat":1.340826,"lon":103.949466,"addr":"2 SIMEI STREET 3"},{"id":"7dbcaa2c49ce","type":"hospital","name":"CRAWFURD HOSPITAL","lat":1.326803,"lon":103.813318,"addr":"19 ADAM ROAD"},{"id":"3afeaaf83f21","type":"hospital","name":"Changi Medical Facility","lat":1.358034,"lon":103.971333,"addr":"982 UPPER CHANGI ROAD NORTH"},{"id":"e0e35c185f94","type":"hospital","name":"FARRER PARK HOSPITAL","lat":1.312473,"lon":103.85393,"addr":"1 FARRER PARK STATION RD,CONNEXION CONNEXION"},{"id":"cb1170f4569f","type":"hospital","name":"GLENEAGLES HOSPITAL","lat":1.307428,"lon":103.819605,"addr":"6A NAPIER ROAD"},{"id":"ff8e4e4cdb6d","type":"hospital","name":"INSTITUTE OF MENTAL HEALTH / WOODBRIDGE HOSPITAL","lat":1.381698,"lon":103.886316,"addr":"10 BUANGKOK VIEW"},{"id":"66be6de76997","type":"hospital","name":"JURONG COMMUNITY HOSPITAL","lat":1.333463,"lon":103.745567,"addr":"1 JURONG EAST STREET 21"},{"id":"e12357cf24dd","type":"hospital","name":"KHOO TECK PUAT HOSPITAL","lat":1.424081,"lon":103.838579,"addr":"90 YISHUN CENTRAL"},{"id":"c3f96e8430d3","type":"hospital","name":"KK WOMEN'S AND CHILDREN'S HOSPITAL","lat":1.31049,"lon":103.846813,"addr":"100 BUKIT TIMAH ROAD"},{"id":"5a6dfd5d918a","type":"hospital","name":"MOUNT ALVERNIA HOSPITAL","lat":1.34182,"lon":103.837594,"addr":"820 THOMSON ROAD"},{"id":"141e5727693f","type":"hospital","name":"MOUNT ELIZABETH HOSPITAL","lat":1.305155,"lon":103.835433,"addr":"3 MOUNT ELIZABETH"},{"id":"d91cfe493913","type":"hospital","name":"MOUNT ELIZABETH NOVENA HOSPITAL","lat":1.32214,"lon":103.844212,"addr":"38 IRRAWADDY ROAD"},{"id":"6081dc7ec04d","type":"hospital","name":"NATIONAL HEART CENTRE SINGAPORE","lat":1.278581,"lon":103.836119,"addr":"5 HOSPITAL DRIVE"},{"id":"5696bff91447","type":"hospital","name":"NATIONAL UNIVERSITY HOSPITAL","lat":1.293489,"lon":103.782736,"addr":"5 LOWER KENT RIDGE ROAD"},{"id":"68e9f521919b","type":"hospital","name":"NG TENG FONG GENERAL HOSPITAL","lat":1.333463,"lon":103.745567,"addr":"1 JURONG EAST STREET 21"},{"id":"608aaf68a6a3","type":"hospital","name":"OUTRAM COMMUNITY HOSPITAL","lat":1.277557,"lon":103.835504,"addr":"10 HOSPITAL BOULEVARD"},{"id":"b6584f7cfcb9","type":"hospital","name":"PARKWAY EAST HOSPITAL","lat":1.315088,"lon":103.908757,"addr":"321 Joo Chiat Place"},{"id":"25665ba30866","type":"hospital","name":"RAFFLES HOSPITAL","lat":1.301181,"lon":103.857466,"addr":"585 NORTH BRIDGE ROAD RAFFLES HOSPITAL"},{"id":"7b00e317d4f5","type":"hospital","name":"REN CI COMMUNITY HOSPITAL","lat":1.322885,"lon":103.845973,"addr":"71 IRRAWADDY ROAD"},{"id":"de9a69d7d487","type":"hospital","name":"SENGKANG COMMUNITY HOSPITAL","lat":1.396022,"lon":103.891834,"addr":"1 ANCHORVALE STREET"},{"id":"7b211f6c8c65","type":"hospital","name":"SENGKANG GENERAL HOSPITAL","lat":1.394393,"lon":103.893164,"addr":"110 SENGKANG EAST WAY"},{"id":"d970bc76ef9a","type":"hospital","name":"SINGAPORE GENERAL HOSPITAL","lat":1.279644,"lon":103.835542,"addr":"- OUTRAM ROAD"},{"id":"2a28bde5ed9f","type":"hospital","name":"ST. ANDREW'S COMMUNITY HOSPITAL","lat":1.341687,"lon":103.9488,"addr":"8 SIMEI STREET 3"},{"id":"f062a6fd3d45","type":"hospital","name":"ST. LUKE'S HOSPITAL","lat":1.3496,"lon":103.742182,"addr":"2 BUKIT BATOK STREET 11"},{"id":"2c017c2b49b8","type":"hospital","name":"TAN TOCK SENG HOSPITAL","lat":1.320631,"lon":103.84846,"addr":"11 JALAN TAN TOCK SENG"},{"id":"05ee1e122222","type":"hospital","name":"TAN TOCK SENG HOSPITAL SUBACUTE WARDS","lat":1.322885,"lon":103.845973,"addr":"71 IRRAWADDY ROAD"},{"id":"1200bfdae1e4","type":"hospital","name":"THOMSON MEDICAL CENTRE","lat":1.325361,"lon":103.841458,"addr":"339 THOMSON ROAD"},{"id":"20f6edc84f5f","type":"hospital","name":"Woodlands Health","lat":1.424681,"lon":103.794744,"addr":"17 WOODLANDS DRIVE 17"},{"id":"36d7f03635af","type":"hospital","name":"YISHUN COMMUNITY HOSPITAL","lat":1.423768,"lon":103.837242,"addr":"2 YISHUN CENTRAL 2"},{"id":"e098ef43854f","type":"hospital","name":"Integrated Building (CGH-SACH)","lat":1.341301,"lon":103.94831,"addr":""},{"id":"00756291a9b0","type":"hospital","name":"Institute of Mental Health","lat":1.381867,"lon":103.884599,"addr":""},{"id":"01799f1fb6c9","type":"hospital","name":"Pacific Family Clinic","lat":1.2892,"lon":103.816275,"addr":""},{"id":"819e1c9dbccf","type":"hospital","name":"Singapore Advanced Medicine Proton Therapy","lat":1.301028,"lon":103.793106,"addr":""},{"id":"07b566100717","type":"hospital","name":"National Cancer Centre Singapore Proton Therapy Ce","lat":1.281333,"lon":103.838054,"addr":"20 Outram Road"},{"id":"97c47744c677","type":"hospital","name":"Urgent Care Centre","lat":1.286917,"lon":103.801607,"addr":""},{"id":"731738b86aaf","type":"hospital","name":"Priya Sen Skin & Laser Centre","lat":1.322566,"lon":103.813656,"addr":"Serene Centre #02-03"},{"id":"002f3529ec40","type":"hospital","name":"Blk 101, TTSH Foot and Limb Center","lat":1.320609,"lon":103.848456,"addr":""},{"id":"dbe3b79825ac","type":"hospital","name":"National University Hospital","lat":1.294199,"lon":103.783059,"addr":""},{"id":"11ee7d29e3cd","type":"hospital","name":"StarMed Specialist Centre","lat":1.312281,"lon":103.854643,"addr":"12 Farrer Park Station Road"},{"id":"67b87ea45447","type":"hospital","name":"Nursing Training Centre","lat":1.287042,"lon":103.801972,"addr":""},{"id":"2a47d8b2bead","type":"hospital","name":"Woodlands Joint Testing & Vaccination Centre","lat":1.437617,"lon":103.786562,"addr":""},{"id":"dd07be5654e5","type":"hospital","name":"Mount Elizabeth Proton Therapy Centre","lat":1.32249,"lon":103.845063,"addr":""},{"id":"45bb9dc120f6","type":"hospital","name":"Gleneagles Medical Centre","lat":1.307159,"lon":103.820255,"addr":"6 Napier Road"},{"id":"83b562540c24","type":"hospital","name":"New Life Coach Doctor","lat":1.30632,"lon":103.820416,"addr":"6 Napier Road"},{"id":"540c2fdad080","type":"hospital","name":"Sengkang General & Community Hospital","lat":1.395209,"lon":103.892527,"addr":"110 Sengkang East Way"},{"id":"babeaee72282","type":"hospital","name":"Changi General Hospital","lat":1.340364,"lon":103.949105,"addr":"Simei Street 3"},{"id":"f8d7a7e97a13","type":"hospital","name":"Ren Ci Hospital","lat":1.381948,"lon":103.8861,"addr":""},{"id":"9052c6a38773","type":"hospital","name":"Ang Mo Kio Community Hospital","lat":1.384024,"lon":103.840238,"addr":""},{"id":"944a3fe3d890","type":"hospital","name":"Mount Alvernia Hospital","lat":1.342202,"lon":103.837931,"addr":"820 Thomson Road"},{"id":"535a2c27d4bd","type":"hospital","name":"Singapore General Hospital","lat":1.279498,"lon":103.834739,"addr":""},{"id":"398883b33847","type":"hospital","name":"Jurong Medical Centre","lat":1.340746,"lon":103.704582,"addr":""},{"id":"c79586e954b2","type":"hospital","name":"Jurong West Joint Testing & Vaccination Centre","lat":1.352582,"lon":103.72689,"addr":"931 Jurong West Street 42"},{"id":"6a341f87a035","type":"hospital","name":"Jurong East Joint Testing & Vaccination Centre","lat":1.340488,"lon":103.739565,"addr":"450 Jurong East Street 21"},{"id":"8061299490f2","type":"hospital","name":"Block 22 - Mortuary","lat":1.286482,"lon":103.799584,"addr":""},{"id":"8d74124a8b75","type":"hospital","name":"Alexandra Hospital","lat":1.286896,"lon":103.801178,"addr":""},{"id":"f3010bb0feaf","type":"hospital","name":"Bright Vision Hospital","lat":1.372058,"lon":103.878028,"addr":"5 Lor Napiri"},{"id":"7132f59b1cfd","type":"hospital","name":"St Luke\u2019s Hospital","lat":1.349467,"lon":103.742109,"addr":"2 Bukit Batok Street 11"},{"id":"077c863bec13","type":"hospital","name":"Saint Andrew's Community Hospital","lat":1.341654,"lon":103.948826,"addr":"Simei Street 3"},{"id":"3335b108f101","type":"hospital","name":"Communicable Disease Centre","lat":1.32128,"lon":103.851019,"addr":""},{"id":"8348459cbf6c","type":"hospital","name":"Ang Mo Kio Joint Testing & Vaccination Centre","lat":1.37497,"lon":103.857345,"addr":"4300 Ang Mo Kio Avenue 5"},{"id":"ee3b398021aa","type":"hospital","name":"Elizabeth Hospital Wards","lat":1.30467,"lon":103.835248,"addr":""},{"id":"dc40e1dacb13","type":"hospital","name":"Jurong Health Specialist Outpatient Clinics","lat":1.334627,"lon":103.744206,"addr":"1 Jurong East Street 21"},{"id":"217e3cd68398","type":"hospital","name":"Jurong Community Hospital","lat":1.33273,"lon":103.746567,"addr":"1 Jurong East Street 21"},{"id":"6c6a69a1d537","type":"hospital","name":"Jurong Health Services","lat":1.334218,"lon":103.745174,"addr":"1 Jurong East Street 21"},{"id":"8a525502d3b5","type":"hospital","name":"ECM Building","lat":1.314967,"lon":103.882936,"addr":"260 Sims Avenue"},{"id":"cfb1a58be3c6","type":"hospital","name":"Kwong Wai Shiu Hospital","lat":1.317407,"lon":103.859043,"addr":"705 Serangoon Road"},{"id":"3eea34ffa59f","type":"hospital","name":"Bukit Merah Joint Testing & Vaccination Centre","lat":1.28897,"lon":103.825255,"addr":"8 Lower Delta Road"},{"id":"c6522c4f9369","type":"hospital","name":"Hospital","lat":1.349717,"lon":103.730692,"addr":""},{"id":"94acf9481c61","type":"hospital","name":"Buangkok Green Medical Park","lat":1.382135,"lon":103.884733,"addr":""},{"id":"9199a5369c58","type":"hospital","name":"Sengkang Joint Testing & Vaccination Centre","lat":1.390803,"lon":103.903598,"addr":"60 Sengkang East Way"},{"id":"72bcbc4141a2","type":"hospital","name":"Hospital","lat":1.319837,"lon":103.849026,"addr":""},{"id":"b0881e06e572","type":"hospital","name":"Hospital","lat":1.363278,"lon":103.937602,"addr":""},{"id":"57bf183fc201","type":"hospital","name":"Tan Tock Seng Hospital Integrated Care Hub","lat":1.323731,"lon":103.846493,"addr":"1 Tan Tock Seng Link"},{"id":"2aa1df35a96c","type":"hospital","name":"Bidadari Polyclinic & Nursing Home","lat":1.337045,"lon":103.875069,"addr":"Alkaff Crescent"},{"id":"9813f07f6b7b","type":"hospital","name":"HealthCity Novena","lat":1.321578,"lon":103.846794,"addr":""},{"id":"dbb1b757cc78","type":"hospital","name":"Eastern General Hospital","lat":1.337047,"lon":103.917637,"addr":""},{"id":"23dbab2bc2b8","type":"hospital","name":"St Andrew's Nursing Home (Aljunied)","lat":1.321862,"lon":103.880942,"addr":""},{"id":"972068eecebd","type":"hospital","name":"KKH@Halifax","lat":1.312201,"lon":103.846077,"addr":""},{"id":"737c5f32dcd4","type":"hospital","name":"West Point Hospital","lat":1.331073,"lon":103.722945,"addr":""},{"id":"1988f11b70af","type":"hospital","name":"National Kidney Foundation Dialysis Centre","lat":1.326644,"lon":103.854591,"addr":"81 Kim Keat Road"},{"id":"b618ce72a841","type":"hospital","name":"Hospital","lat":1.325421,"lon":103.841494,"addr":""},{"id":"bde19b96a00e","type":"hospital","name":"St. Andrew's Community Hospital (Bedok)","lat":1.315448,"lon":103.9322,"addr":"208 Bedok South Avenue 1"},{"id":"029606245e86","type":"hospital","name":"Institute Of Mental Health","lat":1.382791,"lon":103.884318,"addr":""},{"id":"f4fe84f69091","type":"hospital","name":"Tan Tock Seng Hospital","lat":1.32128,"lon":103.846204,"addr":"11 Jalan Tan Tock Seng"},{"id":"57359faeb932","type":"clinic","name":"Kallang Polyclinic","lat":1.316693,"lon":103.858687,"addr":"701 Serangoon Road"},{"id":"b05a60e8704e","type":"clinic","name":"Eunos Polyclinic","lat":1.317338,"lon":103.905777,"addr":"1 Chin Cheng Avenue"},{"id":"9d4b9933e0e3","type":"clinic","name":"Bukit Batok Polyclinic","lat":1.352015,"lon":103.747822,"addr":"50 Bukit Batok West Avenue 3"},{"id":"cfaf7a2470d1","type":"clinic","name":"Punggol Polyclinic","lat":1.402878,"lon":103.913196,"addr":"681 Punggol Drive"},{"id":"cb37295790df","type":"clinic","name":"Woodlands Polyclinic","lat":1.430893,"lon":103.775213,"addr":"10 Woodlands Street 31"},{"id":"90fea12ea798","type":"clinic","name":"Geylang Polyclinic","lat":1.319494,"lon":103.887166,"addr":"21 Geylang East Central"},{"id":"f398d6d59bbd","type":"clinic","name":"Tampines Polyclinic","lat":1.35731,"lon":103.945849,"addr":"1 Tampines Street 41"},{"id":"82ace31f866f","type":"clinic","name":"Pioneer Polyclinic","lat":1.338562,"lon":103.698979,"addr":"26 Jurong West Street 61"},{"id":"add251e99852","type":"clinic","name":"Dover Medical Centre","lat":1.296196,"lon":103.786959,"addr":"69 Ayer Rajah Crescent"},{"id":"813ffc75b34c","type":"clinic","name":"National Neuroscience Institute","lat":1.322072,"lon":103.845583,"addr":"11 Jalan Tan Tock Seng"},{"id":"8a94e401fa77","type":"clinic","name":"Clementi Polyclinic","lat":1.312699,"lon":103.765619,"addr":"451 Clementi Avenue 3"},{"id":"8ece5a4e5bf6","type":"clinic","name":"Healthway Kembangan Clinic","lat":1.323565,"lon":103.910901,"addr":""},{"id":"557ffe0efdb2","type":"clinic","name":"My Family Clinic","lat":1.309854,"lon":103.7686,"addr":""},{"id":"c8c6a7a0df78","type":"clinic","name":"Casa Dental","lat":1.30987,"lon":103.768638,"addr":""},{"id":"a365e3922585","type":"clinic","name":"Bukit Merah Polyclinic","lat":1.283691,"lon":103.817018,"addr":"163 Bukit Merah Central"},{"id":"62a2216cf2cf","type":"clinic","name":"Singapore Buddist Free Clinic (Ang Mo Kio)","lat":1.366181,"lon":103.847707,"addr":""},{"id":"2eec2a42eebc","type":"clinic","name":"The Dublin Clinic","lat":1.321965,"lon":103.770815,"addr":"01-25 Sunset Way"},{"id":"a7a09acb045c","type":"clinic","name":"Chiat Clinic for Women","lat":1.313444,"lon":103.899621,"addr":"Joo Chiat Road"},{"id":"941f6fd2d2c2","type":"clinic","name":"Vidajoie Chiropractic Centre","lat":1.312834,"lon":103.899858,"addr":"Joo Chiat Road"},{"id":"6a653e90bc8a","type":"clinic","name":"Prohealth","lat":1.377122,"lon":103.772944,"addr":"259 Bukit Panjang Ring Road"},{"id":"e01779291d1c","type":"clinic","name":"Healthway Medical","lat":1.341409,"lon":103.691239,"addr":"960 Jurong West Street 92"},{"id":"0c904ef9d849","type":"clinic","name":"Adam Road Medical Center","lat":1.323681,"lon":103.81026,"addr":""},{"id":"a93955f677ef","type":"clinic","name":"BOEY @ Holland V Family Clinic","lat":1.311085,"lon":103.795268,"addr":"6 Lorong Mambong"},{"id":"787dc3a8673f","type":"clinic","name":"Clinic","lat":1.393592,"lon":103.909454,"addr":""},{"id":"0eaf9d61a05f","type":"clinic","name":"Inmed","lat":1.29925,"lon":103.853401,"addr":""},{"id":"e905d27150b9","type":"clinic","name":"KiroLounge - The Spine Place","lat":1.301773,"lon":103.857722,"addr":"390 #03-34 Victoria Street"},{"id":"e1ec07490a0f","type":"clinic","name":"Trans Island Medical Group","lat":1.320812,"lon":103.862196,"addr":"102 Towner Road"},{"id":"f94cca6a2c3c","type":"clinic","name":"W H Yak Family Clinic","lat":1.323125,"lon":103.933847,"addr":""},{"id":"1fc84b59efa6","type":"clinic","name":"Jurong Polyclinic","lat":1.349623,"lon":103.730729,"addr":"190 Jurong East Avenue 1"},{"id":"2b3019afee59","type":"clinic","name":"Sengkang Polyclinic","lat":1.392693,"lon":103.894111,"addr":"2 Sengkang Square"},{"id":"6446f6a8290f","type":"clinic","name":"Outram Polyclinic","lat":1.279905,"lon":103.838168,"addr":"3 Second Hospital Avenue"},{"id":"d1ffea9cddc7","type":"clinic","name":"Marine Parade Polyclinic","lat":1.302548,"lon":103.907765,"addr":"80 Marine Parade Central"},{"id":"053ee9ba18d1","type":"clinic","name":"Bedok Polyclinic","lat":1.326938,"lon":103.931607,"addr":"212 Bedok North Street 1"},{"id":"5f20cd0869bf","type":"clinic","name":"Pasir Ris Polyclinic","lat":1.368667,"lon":103.959263,"addr":"1 Pasir Ris Drive 4"},{"id":"8b86cf4059ba","type":"clinic","name":"Family Doctors at 365","lat":1.337734,"lon":103.720294,"addr":"365 Corporation Drive"},{"id":"f90bfc7a4efb","type":"clinic","name":"Acumed Medical Group","lat":1.317335,"lon":103.652198,"addr":"71 Pioneer Road"},{"id":"d2d2b8460862","type":"clinic","name":"Acumed Medical Group","lat":1.324846,"lon":103.695777,"addr":"7 Pioneer Road North"},{"id":"299bae46597b","type":"clinic","name":"OneCare Clinic Boon Lay","lat":1.346558,"lon":103.712114,"addr":"221 Boon Lay Place"},{"id":"9dfc9e4181e5","type":"clinic","name":"Community Medical Clinic","lat":1.346754,"lon":103.712178,"addr":"221 Boon Lay Place"},{"id":"d53925b7b88d","type":"clinic","name":"Boon Lay Clinic & Surgery","lat":1.346443,"lon":103.712185,"addr":"221 Boon Lay Place"},{"id":"451d4f2bf69a","type":"clinic","name":"Bless Medical Centre","lat":1.346388,"lon":103.712233,"addr":"221 Boon Lay Place"},{"id":"5f7e3a7dbdfa","type":"clinic","name":"Dr. W. K. Koo & Associates P.L.","lat":1.338309,"lon":103.705326,"addr":"301 Boon Lay Way"},{"id":"4084ff6f20a0","type":"clinic","name":"AcuMed Medical Group","lat":1.338283,"lon":103.705245,"addr":"301 Boon Lay Way"},{"id":"11dae36f980a","type":"clinic","name":"Acumed Medical Group","lat":1.332355,"lon":103.722465,"addr":"64 Yung Kuang Road"},{"id":"effff7e453b5","type":"clinic","name":"Drs Tang & Partners","lat":1.332296,"lon":103.722338,"addr":"64 Yung Kuang Road"},{"id":"f7005897846c","type":"clinic","name":"Drs Koo Loh & Associates","lat":1.327061,"lon":103.720664,"addr":"152 Yung Ho Road"},{"id":"52166d5317cb","type":"clinic","name":"Healthserve Community Clinic","lat":1.326912,"lon":103.724426,"addr":"21 Yung Ho Road"},{"id":"97fad6e8e450","type":"clinic","name":"Family Point Clinic & Surgery","lat":1.334493,"lon":103.720612,"addr":"399 Yung Sheng Road"},{"id":"d182953ac8d6","type":"clinic","name":"Point Medical Group","lat":1.33449,"lon":103.720255,"addr":"399 Yung Sheng Road"},{"id":"c2cde494c48f","type":"clinic","name":"Prohealth Medical Group","lat":1.334493,"lon":103.720434,"addr":"399 Yung Sheng Road"},{"id":"dc25e9a09073","type":"clinic","name":"Acumed Medical Group","lat":1.340122,"lon":103.706051,"addr":"1 Jurong West Central 2"},{"id":"cf9e4b417903","type":"clinic","name":"Acumed Medical Group","lat":1.327725,"lon":103.677931,"addr":"91 Joo Koon Circle"},{"id":"ec301eb5fe1c","type":"clinic","name":"Acumed Medical Group","lat":1.267361,"lon":103.704375,"addr":"3 Sakra Road"},{"id":"caeccae7380c","type":"clinic","name":"Clifford Dispensary","lat":1.347221,"lon":103.709896,"addr":"176 Boon Lay Drive"},{"id":"b5b8a8338a52","type":"clinic","name":"Central 24-HR Clinic","lat":1.350043,"lon":103.724711,"addr":"492 Jurong West Street 41"},{"id":"39e4b0437fe2","type":"clinic","name":"Caring Family Clinic","lat":1.349962,"lon":103.719202,"addr":"501 Jurong West Street 51"},{"id":"e34f71b4b036","type":"clinic","name":"Banyan Clinic","lat":1.350441,"lon":103.718186,"addr":"502 Jurong West Avenue 1"},{"id":"4ef9c177716d","type":"clinic","name":"Apex Medical Centre","lat":1.34138,"lon":103.69147,"addr":"960 Jurong West Street 92"},{"id":"4e00b2804884","type":"clinic","name":"Drs Koo, Fok & Associates","lat":1.337582,"lon":103.697878,"addr":"31 Jurong West Street 63"},{"id":"0a67403b60ae","type":"clinic","name":"Dr W K Koo & Associates","lat":1.340338,"lon":103.706231,"addr":"1 Jurong West Central 2"},{"id":"33bd47d8e7b5","type":"clinic","name":"Dr Soh Family Clinic","lat":1.341646,"lon":103.693067,"addr":"966 Jurong West Street 93"},{"id":"280a60ccdc31","type":"clinic","name":"Dr Chua's Family Clinic","lat":1.341564,"lon":103.697116,"addr":"638 Jurong West Street 61"},{"id":"16b6cb6cf363","type":"clinic","name":"Drs Koo, Loh & Fok","lat":1.310787,"lon":103.630204,"addr":"14 Tech Park Crescent"},{"id":"4026b69d9bea","type":"clinic","name":"Drs Koo, Fok & Associates","lat":1.328616,"lon":103.69382,"addr":"4 Kian Teck Avenue"},{"id":"b2225b05bf24","type":"clinic","name":"Drs Oh, Lim, Wong & Partners","lat":1.341492,"lon":103.690635,"addr":"959 Jurong West Street 92"},{"id":"31b7c762e0f5","type":"clinic","name":"Healthway Clinic","lat":1.341198,"lon":103.706847,"addr":"690 Jurong West Central 1"},{"id":"18e27599b749","type":"clinic","name":"Healthmark Clinic","lat":1.341595,"lon":103.69716,"addr":"638 Jurong West Street 61"},{"id":"c5db6e6d9ff5","type":"clinic","name":"GJ Medical Clinic","lat":1.340196,"lon":103.706242,"addr":"1 Jurong West Central 2"},{"id":"fdd96f86606a","type":"clinic","name":"Gethin-Jones Medical Practice","lat":1.34307,"lon":103.681993,"addr":"1 Nanyang Avenue"},{"id":"cb9c5bd38a49","type":"clinic","name":"Fullerton Healthcare","lat":1.340173,"lon":103.706178,"addr":"1 Jurong West Central 2"},{"id":"2cf89ea0f688","type":"clinic","name":"Frontier Medical Associates","lat":1.345095,"lon":103.703437,"addr":"678D Jurong West Street 64"},{"id":"66fdb23828ea","type":"clinic","name":"Everhealth Family Clinic & Surgery","lat":1.34868,"lon":103.697808,"addr":"762 Jurong West Street 75"},{"id":"b2dd436cec53","type":"clinic","name":"Eden Family Clinic","lat":1.34984,"lon":103.725369,"addr":"492 Jurong West Street 41"},{"id":"781ed038dea8","type":"clinic","name":"Foo Clinic","lat":1.341631,"lon":103.69132,"addr":"962 Jurong West Street 91"},{"id":"15b4fb9de805","type":"clinic","name":"Hisemainn Medical Clinic","lat":1.353602,"lon":103.704032,"addr":"276 Jurong West Street 25"},{"id":"3d7e89433a83","type":"clinic","name":"Icon Medical Clinic","lat":1.345439,"lon":103.719457,"addr":"517 Jurong West Street 52"},{"id":"7d8c67b9ae7f","type":"clinic","name":"Kinder Family Clinic","lat":1.350354,"lon":103.719074,"addr":"501 Jurong West Street 51"},{"id":"e3514edbbdbf","type":"clinic","name":"JW Corporation Clinic","lat":1.348985,"lon":103.718435,"addr":"507 Jurong West Street 52"},{"id":"f5409a23e5af","type":"clinic","name":"Jurpoint Medicare Clinic","lat":1.340074,"lon":103.705908,"addr":"1 Jurong West Central 2"},{"id":"5073418efbe2","type":"clinic","name":"Jurong Day & Night Clinic","lat":1.341675,"lon":103.693105,"addr":"966 Jurong West Street 93"},{"id":"55ff9894634a","type":"clinic","name":"John T.L. Lim Clinic & Surgery","lat":1.350197,"lon":103.724279,"addr":"492 Jurong West Street 41"},{"id":"b9d4d31a12d2","type":"clinic","name":"My Family Clinic","lat":1.341616,"lon":103.697195,"addr":"638 Jurong West Street 61"},{"id":"06e09b00c195","type":"clinic","name":"My Doctor","lat":1.34413,"lon":103.720253,"addr":"201 Boon Lay Way"},{"id":"308b797d6d20","type":"clinic","name":"Loi+Wong Clinic & Surgery","lat":1.349165,"lon":103.725292,"addr":"492 Jurong West Street 41"},{"id":"fba5f0c2af1a","type":"clinic","name":"Lee Family Clinic","lat":1.348672,"lon":103.697895,"addr":"762 Jurong West Street 75"},{"id":"8bff68d7a4f5","type":"clinic","name":"Northeast Medical Centre","lat":1.350693,"lon":103.719921,"addr":"456 Jurong West Street 41"},{"id":"2b5897db81a9","type":"clinic","name":"Nanyang Centre Clinic","lat":1.341548,"lon":103.691001,"addr":"959 Jurong West Street 92"},{"id":"fa27d861e985","type":"clinic","name":"Northeast Medical Centre","lat":1.337197,"lon":103.697341,"addr":"651 Jurong West Street 41"},{"id":"b10639e3532b","type":"clinic","name":"One Medical Clinic","lat":1.346136,"lon":103.697423,"addr":"728 Jurong West Avenue 5"},{"id":"9cdc81b0e531","type":"clinic","name":"Pier Medical Centre","lat":1.345495,"lon":103.697341,"addr":"725 Jurong West Avenue 5"},{"id":"4f440b2bcb10","type":"clinic","name":"Oriental Family Clinic","lat":1.348891,"lon":103.724473,"addr":"498 Jurong West Street 41"},{"id":"2d7dfbfafc2c","type":"clinic","name":"Raffles Medical","lat":1.340146,"lon":103.706114,"addr":"1 Jurong West Central 2"},{"id":"5cfe7ebda106","type":"clinic","name":"Prohealth Medical Group","lat":1.33994,"lon":103.699794,"addr":"601A Jurong West Street 62"},{"id":"26ed3a8bb528","type":"clinic","name":"Point Medical Group","lat":1.340095,"lon":103.705972,"addr":"1 Jurong West Central 2"},{"id":"873e8c4f6c4d","type":"clinic","name":"Silver Cross Medical","lat":1.350357,"lon":103.717846,"addr":"502 Jurong West Avenue 1"},{"id":"541cbb4d0922","type":"clinic","name":"Shine Family Clinic","lat":1.350581,"lon":103.722981,"addr":"463 Jurong West Street 41"},{"id":"1d190af74c71","type":"clinic","name":"The Doctor's Clinic","lat":1.351882,"lon":103.724713,"addr":"429 Jurong West Avenue 1"},{"id":"d2187b9ec09e","type":"clinic","name":"Sunshine Family Clinic","lat":1.349546,"lon":103.726547,"addr":"491 Jurong West Avenue 1"},{"id":"58b403c5ef58","type":"clinic","name":"Sunnyvale Clinic & Surgery","lat":1.348684,"lon":103.724102,"addr":"498 Jurong West Street 41"},{"id":"abbb8a5391a6","type":"clinic","name":"TC Family Clinic","lat":1.347514,"lon":103.717085,"addr":"526 Jurong West Street 52"},{"id":"dae1bac0da63","type":"clinic","name":"West Point Clinic","lat":1.346924,"lon":103.692927,"addr":"853 Jurong West Street 81"},{"id":"052140e2ac90","type":"clinic","name":"SATA CommHealth Uttamram Medical Centre","lat":1.327735,"lon":103.921378,"addr":"351 Chai Chee Street"},{"id":"94982afa1955","type":"clinic","name":"OneDoctors","lat":1.371092,"lon":103.848313,"addr":""},{"id":"ef8e584db2a2","type":"clinic","name":"OneDoctors","lat":1.417244,"lon":103.834588,"addr":""},{"id":"01ba0c27bbbc","type":"clinic","name":"OneDoctors","lat":1.349922,"lon":103.873055,"addr":""},{"id":"ac0b1d9369b0","type":"clinic","name":"Osteopathic Healthcare Pte Ltd","lat":1.302463,"lon":103.79304,"addr":"8 Biomedical Grove"},{"id":"81deeafd575c","type":"clinic","name":"The Rehab Practice (Paediatric) Pte Ltd","lat":1.302305,"lon":103.793046,"addr":"8 Biomedical Grove"},{"id":"7cc7a920c575","type":"clinic","name":"Ear, Nose & Throat Specialist Clinic","lat":1.302303,"lon":103.793241,"addr":""},{"id":"683e86423987","type":"clinic","name":"Lifecare Medical Centre","lat":1.329069,"lon":103.886913,"addr":""},{"id":"eb3c7670a6d1","type":"clinic","name":"Ang Liang Medical Hall","lat":1.328871,"lon":103.887194,"addr":""},{"id":"85950db08596","type":"clinic","name":"Cecilia Family Clinic & Surgery","lat":1.362017,"lon":103.952748,"addr":""},{"id":"70e42c45a684","type":"clinic","name":"Choong's Clinic","lat":1.361996,"lon":103.953467,"addr":""},{"id":"7b6c361ecbe7","type":"clinic","name":"Clinic","lat":1.352181,"lon":103.954022,"addr":""},{"id":"1be2e3723046","type":"clinic","name":"Frankel Clinic","lat":1.311958,"lon":103.922067,"addr":"East Coast Road"},{"id":"04aebbcc23d4","type":"clinic","name":"Liang Clinic","lat":1.311929,"lon":103.921999,"addr":"East Coast Road"},{"id":"bbde00e24964","type":"clinic","name":"Family Clinic","lat":1.313218,"lon":103.929343,"addr":"Upper East Coast Road"},{"id":"25793eb18fce","type":"clinic","name":"Thomson Women's Centre","lat":1.30625,"lon":103.905659,"addr":"East Coast Road"},{"id":"0b49258c6f25","type":"clinic","name":"Bedok Family Clinic & Surgery","lat":1.327535,"lon":103.934724,"addr":"Bedok North Street 1"},{"id":"bbb705d69f00","type":"clinic","name":"GIFT Medical Centre","lat":1.333173,"lon":103.878773,"addr":"389 Upper Ajunied Road"},{"id":"cddc188a866a","type":"clinic","name":"Lim Clinic","lat":1.318162,"lon":103.907102,"addr":"Changi Road"},{"id":"6f7bbb50faad","type":"clinic","name":"M. Lam Clinic","lat":1.314907,"lon":103.890589,"addr":"Geylang Road"},{"id":"3466f7874cf9","type":"clinic","name":"Xinhuo Medical Clinic","lat":1.31277,"lon":103.879492,"addr":"Geylang Road"},{"id":"d418fe7a957c","type":"clinic","name":"Geylang Serai Clinic","lat":1.316754,"lon":103.901633,"addr":"Changi Road"},{"id":"075e0eb13f34","type":"clinic","name":"ECM X-Ray Centre PTE LTD","lat":1.315032,"lon":103.882939,"addr":"Sims Avenue"},{"id":"3b5893994f91","type":"clinic","name":"ECM Clinic & Surgery PTE LTD","lat":1.314964,"lon":103.882695,"addr":"Sims Avenue"},{"id":"0214f5c254d8","type":"clinic","name":"Crescent Clinic & Surgery","lat":1.321313,"lon":103.90275,"addr":"Eunos Crescent"},{"id":"ea9ed2e70c75","type":"clinic","name":"Central Clinic","lat":1.319258,"lon":103.886655,"addr":"119 Geylang East Central"},{"id":"bf8bfd12e1dc","type":"clinic","name":"Medical Clinic","lat":1.372761,"lon":103.898933,"addr":"Upper Serangoon Road"},{"id":"6376072dd643","type":"clinic","name":"Mao Medical Center & Surgery","lat":1.277381,"lon":103.831857,"addr":"149 Silat Avenue"},{"id":"564aa03849b6","type":"clinic","name":"Central 24-Hr Clinic (Hougang)","lat":1.372572,"lon":103.885671,"addr":"Hougang Avenue 4"},{"id":"e06dc701c7c9","type":"clinic","name":"Siglap Clinic","lat":1.309495,"lon":103.911963,"addr":"Telok Kurau Court"},{"id":"2549347435b8","type":"clinic","name":"Wong Pang Ong Bone Injury Specialists","lat":1.310576,"lon":103.901654,"addr":"259 Joo Chiat Road"},{"id":"28a64240c0d3","type":"clinic","name":"EstheClinic Paris","lat":1.307044,"lon":103.90406,"addr":"Joo Chiat Road"},{"id":"9b26f219ac90","type":"clinic","name":"Raffles Medical","lat":1.378411,"lon":103.763859,"addr":""},{"id":"d951038bc91a","type":"clinic","name":"Lee Clinic","lat":1.306592,"lon":103.904705,"addr":"Joo Chiat Road"},{"id":"0c959fb139d0","type":"clinic","name":"Rhema","lat":1.354496,"lon":103.879139,"addr":"Upper Serangoon Road"},{"id":"9b2d6ea57694","type":"clinic","name":"FHC Dialysis Centre Pte Ltd","lat":1.362017,"lon":103.885675,"addr":"Simon Road"},{"id":"ee368b576249","type":"clinic","name":"Redwood Clinic And Surgery","lat":1.289268,"lon":103.817108,"addr":""},{"id":"e756e82e7071","type":"clinic","name":"KHOE","lat":1.362368,"lon":103.887773,"addr":"Upper Serangoon Road"},{"id":"fe6d360b5e74","type":"clinic","name":"Nam Ann Siang Theon Medical Centre","lat":1.358613,"lon":103.887568,"addr":"Hougang Street 21"},{"id":"bdbfb4afd1a5","type":"clinic","name":"Medicane Associates","lat":1.369879,"lon":103.870371,"addr":"Serangoon North Avenue 1"},{"id":"24e177c15232","type":"clinic","name":"TCM Clinic","lat":1.329162,"lon":103.873388,"addr":"MacPherson Road"},{"id":"7caf5b19cba3","type":"clinic","name":"Kong Kian Clinic","lat":1.340127,"lon":103.885084,"addr":"Jalan Bunga Rampai"},{"id":"3e1419f0a671","type":"clinic","name":"Sincere","lat":1.436962,"lon":103.837402,"addr":"Yishun Street 22"},{"id":"b0ce65ed37b8","type":"clinic","name":"Kensing On Family Clinic","lat":1.365319,"lon":103.866153,"addr":"Kensington Park Road"},{"id":"aac0c9ad27b2","type":"clinic","name":"Mediline Wei Min Clinic","lat":1.36519,"lon":103.86615,"addr":"Kensington Park Road"},{"id":"9c3c2e848aef","type":"clinic","name":"K.N. Lau Clinic","lat":1.364778,"lon":103.866098,"addr":"Kensington Park Road"},{"id":"4e278e3bc41d","type":"clinic","name":"The Medical Clinic","lat":1.284602,"lon":103.849685,"addr":"Phillip Street"},{"id":"ec1548e0576d","type":"clinic","name":"Singapore Buddhist Free Clinic","lat":1.315437,"lon":103.881475,"addr":"Ajunied Road"},{"id":"2e3d9fb9d592","type":"clinic","name":"Medical Clinic","lat":1.293877,"lon":103.851354,"addr":"Stamford Road"},{"id":"865c6eaaced0","type":"clinic","name":"Pinnacle Family Clinic","lat":1.294114,"lon":103.842272,"addr":"240 River Valley Road"},{"id":"38601eaa74fd","type":"clinic","name":"Tang Family Clinic","lat":1.340496,"lon":103.773151,"addr":"84 Jalan Jurong Kechil"},{"id":"92b00ffd67d4","type":"clinic","name":"Cheong Medical Clinic","lat":1.340453,"lon":103.773334,"addr":"76 Jalan Jurong Kechil"},{"id":"5bf0a1a4995c","type":"clinic","name":"New World Clinic & Surgery","lat":1.307251,"lon":103.857875,"addr":""},{"id":"b7b918ae3495","type":"clinic","name":"DSC","lat":1.306613,"lon":103.856942,"addr":"Kelantan Lane"},{"id":"36f6cc53b04c","type":"clinic","name":"Family Health Clinic & Surgery","lat":1.325887,"lon":103.84223,"addr":"Thomson Road"},{"id":"8438742b9129","type":"clinic","name":"Tiong Bahru Medical Centre","lat":1.285044,"lon":103.829352,"addr":"Kim Tian Road"},{"id":"33b9aec8c3b9","type":"clinic","name":"Ong's Clinic","lat":1.302298,"lon":103.85277,"addr":"Bencoolen Street"},{"id":"81741ea71cb7","type":"clinic","name":"Singapura Clinic","lat":1.298706,"lon":103.849926,"addr":"Bencoolen Street"},{"id":"060aba771126","type":"clinic","name":"N B Tham Clinic","lat":1.322519,"lon":103.853376,"addr":"Whampoa Drive"},{"id":"9725fa1e13e4","type":"clinic","name":"No Ai TCM Clinic","lat":1.324766,"lon":103.857812,"addr":"Whampoa Drive"},{"id":"5eef93a99cff","type":"clinic","name":"The Family Doctor","lat":1.352359,"lon":103.834945,"addr":"Upper Thomson Road"},{"id":"027f05f1e9d8","type":"clinic","name":"Suwen TCM Clinic Pte Ltd","lat":1.352434,"lon":103.834905,"addr":"215H Upper Thomson Road"},{"id":"67293ebd616d","type":"clinic","name":"Raffles Medicial","lat":1.357967,"lon":103.986482,"addr":""},{"id":"62e473e94480","type":"clinic","name":"Sterling Clinic & Surgery","lat":1.350647,"lon":103.876254,"addr":"3 Lorong Lew Lian"},{"id":"d281ca959db7","type":"clinic","name":"Chiew Clinic","lat":1.362033,"lon":103.885093,"addr":""},{"id":"f6aa1d5f47ee","type":"clinic","name":"PanHealth Family Clinic","lat":1.411295,"lon":103.900548,"addr":""},{"id":"b3d425fa2025","type":"clinic","name":"Kerbal-Basic TCM Clinic","lat":1.289374,"lon":103.827758,"addr":"727 Havelock Road"},{"id":"558c1c533c9d","type":"clinic","name":"Great Wall Acupuncture Clinic","lat":1.289153,"lon":103.81623,"addr":"75D Redhill Road"},{"id":"a2f8796df5a2","type":"clinic","name":"A Medical Clinic","lat":1.277442,"lon":103.840245,"addr":"#01-27 1 Everton Park"},{"id":"700afe173965","type":"clinic","name":"Hill Spring Medical","lat":1.371554,"lon":103.829114,"addr":"12 Jalan Leban"},{"id":"2aa626fa3824","type":"clinic","name":"Mount Pleasant Animal Clinic","lat":1.306361,"lon":103.905867,"addr":""},{"id":"f970b0f84ec3","type":"clinic","name":"Katong Baby & Child Clinic","lat":1.30727,"lon":103.906717,"addr":""},{"id":"23cfac923d44","type":"clinic","name":"Wisteria Xuan TCM","lat":1.307295,"lon":103.906749,"addr":""},{"id":"56cdfcc30507","type":"clinic","name":"Kai Clinic","lat":1.307606,"lon":103.907173,"addr":""},{"id":"8a7335f183e0","type":"clinic","name":"\u4e2d\u56fd\u4e2d\u533b Chinese medical centre","lat":1.300444,"lon":103.853887,"addr":""},{"id":"2081f6f816df","type":"clinic","name":"Central 24-hr clinic","lat":1.313431,"lon":103.765501,"addr":""},{"id":"2152810f0b35","type":"clinic","name":"Dr Steven Ang Asthetic & Family Clinic","lat":1.289085,"lon":103.81619,"addr":"75A Redhill Road"},{"id":"f7a005478658","type":"clinic","name":"Ong's Clinic","lat":1.302724,"lon":103.852413,"addr":""},{"id":"3da7a6a43c49","type":"clinic","name":"United Health Family Clinic & Surgery","lat":1.417699,"lon":103.837117,"addr":"627 Yishun Street 61"},{"id":"9c656561160a","type":"clinic","name":"Roy's Family Clinic","lat":1.417172,"lon":103.834552,"addr":"555 Ang Mo Kio Avenue 10, #01-1974"},{"id":"9aee3fb785fc","type":"clinic","name":"Sunbeam","lat":1.393789,"lon":103.889127,"addr":""},{"id":"0a6db25731bb","type":"clinic","name":"Medivene Clinic & Surgery","lat":1.396887,"lon":103.889332,"addr":""},{"id":"63ec3d85b356","type":"clinic","name":"The Oral Maxillofacial Practice","lat":1.322131,"lon":103.844313,"addr":"#11-43 Mount Elizabeth Novena Specialist Centre, 38 Irrawaddy Road"},{"id":"a1b40aca7ea8","type":"clinic","name":"ProHealth Medical Group @ Fernvale LRT","lat":1.392395,"lon":103.87633,"addr":""},{"id":"830ce3a7ab19","type":"clinic","name":"Family Medical Clinic","lat":1.347675,"lon":103.757075,"addr":""},{"id":"6d4a54c41077","type":"clinic","name":"Lifeline Neighbourhood Medical Clinic","lat":1.34803,"lon":103.757158,"addr":""},{"id":"c6391035d28e","type":"clinic","name":"First Light Clinic","lat":1.348739,"lon":103.757765,"addr":""},{"id":"d9a26d9f6090","type":"clinic","name":"Excelsior Clinic","lat":1.346975,"lon":103.757164,"addr":""},{"id":"3e88b416aeb5","type":"clinic","name":"Goh Clinic","lat":1.347154,"lon":103.757332,"addr":""},{"id":"6cc140ca066f","type":"clinic","name":"S.T. Medical Clinic","lat":1.333088,"lon":103.926024,"addr":""},{"id":"7c605712621f","type":"clinic","name":"Northeast Medical Group","lat":1.333103,"lon":103.926089,"addr":""},{"id":"9e6c69aeb404","type":"clinic","name":"KHO Clinic","lat":1.332368,"lon":103.92428,"addr":""},{"id":"66b855bc2a9d","type":"clinic","name":"YSL Bedok Clinic & Surgery","lat":1.331729,"lon":103.925836,"addr":"539 Bedok North Street 3"},{"id":"97118802338d","type":"clinic","name":"Wong Clinic","lat":1.331229,"lon":103.925228,"addr":""},{"id":"86213a6ee0b8","type":"clinic","name":"The Balmoral Clinic","lat":1.302259,"lon":103.876697,"addr":""},{"id":"f97be1118389","type":"clinic","name":"Tampines Family Medicine Clinic","lat":1.353639,"lon":103.939665,"addr":""},{"id":"a2ad2b4496d0","type":"clinic","name":"G-Clinic","lat":1.292119,"lon":103.859784,"addr":""},{"id":"c36613245572","type":"clinic","name":"Phoon Clinic and Surgery","lat":1.332148,"lon":103.914585,"addr":"632 Bedok Reservoir Road"},{"id":"3f23a594f386","type":"clinic","name":"ProHealth","lat":1.382627,"lon":103.893785,"addr":""},{"id":"667ed20a48d0","type":"clinic","name":"K. L. Tay Clinic & Surgery","lat":1.332343,"lon":103.914654,"addr":"632 Bedok Reservoir Road"},{"id":"5499c437066f","type":"clinic","name":"Healthplus Clinic & Surgery","lat":1.333138,"lon":103.915624,"addr":"631 Bedok Reservoir Road"},{"id":"5f411ff70c95","type":"clinic","name":"Eastern Medical Centre","lat":1.333201,"lon":103.915691,"addr":"631 Bedok Reservoir Road"},{"id":"63ab5b260d4d","type":"clinic","name":"Pam Island Clinic & Surgery","lat":1.332581,"lon":103.914306,"addr":"632 Bedok Reservoir Road"},{"id":"6407598bccd9","type":"clinic","name":"The Olive Tree Family Clinic & Surgery","lat":1.387101,"lon":103.890465,"addr":""},{"id":"2151f4707e38","type":"clinic","name":"Tan & Koh Clinic & Surgery","lat":1.331344,"lon":103.909704,"addr":"121 Bedok Reservoir Road"},{"id":"9cf82996eeb1","type":"clinic","name":"Island Family Clinic (Anchorvale)","lat":1.399026,"lon":103.88987,"addr":""},{"id":"ea462aea9561","type":"clinic","name":"Wong Family Clinic & Surgery","lat":1.331432,"lon":103.908933,"addr":"117 #01-68 Bedok Reservoir Road"},{"id":"0ccb99cf14ef","type":"clinic","name":"Tay Clinic","lat":1.331448,"lon":103.908805,"addr":"117 #01-62 Bedok Reservoir Road"},{"id":"c9e948fdc794","type":"clinic","name":"Bok Family Clinic","lat":1.331461,"lon":103.908629,"addr":"171 #01-58 Bedok Reservoir Road"},{"id":"5035759464c7","type":"clinic","name":"Acumed Medical Group","lat":1.389895,"lon":103.892783,"addr":""},{"id":"4ff2cfb56485","type":"clinic","name":"My Family Clinic (Hougang Central)","lat":1.3707,"lon":103.894729,"addr":""},{"id":"aaf777e0c5c1","type":"clinic","name":"Radiant Medical & Aesthetic Centre","lat":1.371622,"lon":103.893433,"addr":""},{"id":"210431256892","type":"clinic","name":"Hougang Central Medical Clinic","lat":1.370893,"lon":103.89476,"addr":""},{"id":"70486a311cdc","type":"clinic","name":"Fu-Xing Paediatric & Family Clinic","lat":1.283451,"lon":103.815864,"addr":"161 Bukit Merah Central"},{"id":"00a3cdc16008","type":"clinic","name":"Fresenius Medical Care","lat":1.283602,"lon":103.815902,"addr":"161 Bukit Merah Central"},{"id":"52161954b7b3","type":"clinic","name":"Drs. Koo, Koh & Associates P.L. Medical Clinic","lat":1.283716,"lon":103.816397,"addr":""},{"id":"231e75c8da69","type":"clinic","name":"Kang Clinic","lat":1.395961,"lon":103.872844,"addr":"229 Jalan Kayu"},{"id":"b4ba54080677","type":"clinic","name":"Doctor Jay Medical Center","lat":1.298008,"lon":103.838731,"addr":"113 Killiney Road"},{"id":"d2e3d839e4e1","type":"clinic","name":"Killiney Medical Clinic","lat":1.298913,"lon":103.839543,"addr":"61 Killiney Road"},{"id":"0b7917b7733e","type":"clinic","name":"Shenton Medical Group","lat":1.378707,"lon":103.942242,"addr":""},{"id":"2b281a4a3b10","type":"clinic","name":"Healthway Medical Clinic","lat":1.378781,"lon":103.942229,"addr":""},{"id":"eb535c905972","type":"clinic","name":"Elias Family Clinic & Surgery","lat":1.378898,"lon":103.942138,"addr":""},{"id":"ad5634d135c5","type":"clinic","name":"Kidneycare Dialysis Centre","lat":1.378547,"lon":103.941833,"addr":""},{"id":"411d1b50d9b0","type":"clinic","name":"K.B. Tan Clinic & Laser Surgery","lat":1.378758,"lon":103.941779,"addr":""},{"id":"eeb57690181a","type":"clinic","name":"AcuHealth TCM Medical Centre","lat":1.359103,"lon":103.955159,"addr":""},{"id":"58ff22255c12","type":"clinic","name":"Lotus Medical Clinic","lat":1.339409,"lon":103.885718,"addr":""},{"id":"205c9c8753b8","type":"clinic","name":"Medora Clinic & Surgery","lat":1.338187,"lon":103.886612,"addr":""},{"id":"465827186195","type":"clinic","name":"Tai Seng Clinic","lat":1.338813,"lon":103.886205,"addr":"Jalan Bunga Rampai"},{"id":"2d63b903d9ac","type":"clinic","name":"T.S. Wong Clinic & Surgery","lat":1.434235,"lon":103.77553,"addr":"166 Woodlands Street 13"},{"id":"22403ef9de35","type":"clinic","name":"Ayush Ayurvedic","lat":1.310018,"lon":103.852281,"addr":""},{"id":"804fdc3266bc","type":"clinic","name":"Kerala Ayuverda Clinic","lat":1.308432,"lon":103.851455,"addr":"43"},{"id":"230838824356","type":"clinic","name":"Dr W.K. Koo & Associates P.L.","lat":1.320821,"lon":103.747961,"addr":""},{"id":"e3971d7d54f6","type":"clinic","name":"Pandan Clinic Pte Ltd","lat":1.320749,"lon":103.748313,"addr":""},{"id":"1fbc85032d0d","type":"clinic","name":"Boon Keng Clinic & Surgery","lat":1.314195,"lon":103.870807,"addr":""},{"id":"d96ee22aadb9","type":"clinic","name":"New Town Clinic","lat":1.314358,"lon":103.871226,"addr":""},{"id":"ad45f7e5b1b2","type":"clinic","name":"Chin Choo Clinic","lat":1.329236,"lon":103.886271,"addr":""},{"id":"6d6d3c39eac5","type":"clinic","name":"MacPherson Medical Clinic","lat":1.327661,"lon":103.885223,"addr":""},{"id":"68da8615199c","type":"clinic","name":"OneCare Medical Tiong Bahru","lat":1.286088,"lon":103.828795,"addr":"11A Boon Tiong Road #01-08"},{"id":"5016e7583b0d","type":"clinic","name":"Chua and Partners Family Clinic","lat":1.285723,"lon":103.826724,"addr":""},{"id":"bd0b92546d1a","type":"clinic","name":"The Clinic @ Tai Seng","lat":1.336332,"lon":103.888583,"addr":""},{"id":"2f7f6cfc8568","type":"clinic","name":"Balance&Cleanse","lat":1.311037,"lon":103.873681,"addr":""},{"id":"fb78b72daf25","type":"clinic","name":"Island Family Clinic (Sengkang)","lat":1.386049,"lon":103.89329,"addr":""},{"id":"71b53b1f367a","type":"clinic","name":"Drs Lim & Chan Clinic","lat":1.350679,"lon":103.875757,"addr":""},{"id":"086b10b9dbb2","type":"clinic","name":"AE Medical Clinic","lat":1.398233,"lon":103.877915,"addr":""},{"id":"eb0b2590aa8e","type":"clinic","name":"Family Medicine Clinic Chinatown","lat":1.284741,"lon":103.844797,"addr":""},{"id":"2882324b7cf9","type":"clinic","name":"Fresenius Medical Care","lat":1.349116,"lon":103.729614,"addr":""},{"id":"b3c44280f914","type":"clinic","name":"Eastern Clinic & Surgery","lat":1.347685,"lon":103.730558,"addr":""},{"id":"058e3e81f5cf","type":"clinic","name":"Parkway Cancer Centre","lat":1.30509,"lon":103.8354,"addr":"3 Mount Elizabeth, Mount Elizabeth Hospital Level 2"},{"id":"d0f2cefed934","type":"clinic","name":"Raffles Medical","lat":1.264817,"lon":103.820005,"addr":""},{"id":"16b96c89063a","type":"clinic","name":"Northeast Medical Group","lat":1.392089,"lon":103.895525,"addr":""},{"id":"f258dc44a4ee","type":"clinic","name":"Minmed Clinic","lat":1.406447,"lon":103.901691,"addr":""},{"id":"c8eee3bb11be","type":"clinic","name":"Thomson Paediatric Centre","lat":1.406028,"lon":103.902166,"addr":""},{"id":"e0ffbe76bf66","type":"clinic","name":"Raffles Medical","lat":1.406037,"lon":103.902208,"addr":""},{"id":"31b0c9dec8e9","type":"clinic","name":"One Doctors Family Clinic","lat":1.406545,"lon":103.901762,"addr":""},{"id":"07c56e6fc187","type":"clinic","name":"An Kang TCM","lat":1.361703,"lon":103.751253,"addr":""},{"id":"d06ae51a39f1","type":"clinic","name":"OneCare Clinic","lat":1.358822,"lon":103.751979,"addr":""},{"id":"7fafe2fde280","type":"clinic","name":"Joy Family Clinic","lat":1.337114,"lon":103.919992,"addr":"703 Bedok Reservoir Road"},{"id":"2fbff3c58b1b","type":"clinic","name":"Procross Medical Center","lat":1.331881,"lon":103.868308,"addr":""},{"id":"3264dfb67f51","type":"clinic","name":"Hyperbaric Medical Services","lat":1.324777,"lon":103.842248,"addr":"1 Thomson Road"},{"id":"d979546227ee","type":"clinic","name":"MyHealth Medical Centre","lat":1.312229,"lon":103.758923,"addr":"#01-256 West Coast Drive"},{"id":"fc4bc1db3cad","type":"clinic","name":"Hock Leong Ann TCM Clinic","lat":1.40232,"lon":103.891881,"addr":"231A Sumang Lane"},{"id":"9fc4b42436a6","type":"clinic","name":"Calrose Medical","lat":1.402289,"lon":103.892039,"addr":"231A Sumang Lane"},{"id":"9dcad77c8fd1","type":"clinic","name":"One Care Clinic","lat":1.323978,"lon":103.929825,"addr":""},{"id":"0798922b4d12","type":"clinic","name":"Carelite Medical Centre","lat":1.29908,"lon":103.787564,"addr":"1 Fusionopolis Way"},{"id":"d0f1ac55ccb6","type":"clinic","name":"NKF Dialysis Centre","lat":1.343299,"lon":103.688731,"addr":"940 Jurong West Street 91"},{"id":"c6f513b2ba9d","type":"clinic","name":"Eu Yan Sang","lat":1.391632,"lon":103.894941,"addr":""},{"id":"797669845b51","type":"clinic","name":"The Kid's Clinic","lat":1.391592,"lon":103.894985,"addr":""},{"id":"04cbc339b279","type":"clinic","name":"Parkway Shenton Medical Group","lat":1.280712,"lon":103.849773,"addr":""},{"id":"ca9414dba0d4","type":"clinic","name":"International Medical Clinic","lat":1.304979,"lon":103.904522,"addr":""},{"id":"a18d5bfc065d","type":"clinic","name":"Wahweda's","lat":1.306946,"lon":103.851539,"addr":""},{"id":"d62336a45686","type":"clinic","name":"CCK Family Clinic","lat":1.384662,"lon":103.743117,"addr":""},{"id":"c6b7a1cf37b1","type":"clinic","name":"The Premier Medical Clinic","lat":1.384713,"lon":103.743102,"addr":""},{"id":"097b1431ab77","type":"clinic","name":"Bukit Timah Nam Sang Clinic","lat":1.340487,"lon":103.773242,"addr":"80 Jalan Jurong Kechil"},{"id":"a3a3b272dffe","type":"clinic","name":"Low & Lee Clinic & Surgery","lat":1.327288,"lon":103.919211,"addr":""},{"id":"2f8357aa6afd","type":"clinic","name":"FamilyCare Clinic and Surgery","lat":1.327114,"lon":103.918916,"addr":""},{"id":"4489de5e2853","type":"clinic","name":"Chai Chee Clinic & Surgery","lat":1.323271,"lon":103.924281,"addr":""},{"id":"eb8c15375a58","type":"clinic","name":"HealthLine Family Clinic","lat":1.323474,"lon":103.923945,"addr":""},{"id":"e6f2612a1afd","type":"clinic","name":"Sefton Medical Centre Pte. Ltd.","lat":1.307433,"lon":103.793666,"addr":""},{"id":"55bd4eb3e8ad","type":"clinic","name":"May Medical Clinic & Surgery","lat":1.307553,"lon":103.793486,"addr":""},{"id":"05f6d3f93b43","type":"clinic","name":"Healthway Medical Clinic","lat":1.307677,"lon":103.793333,"addr":""},{"id":"ef36bc29778e","type":"clinic","name":"Family Health Clinic","lat":1.307479,"lon":103.792807,"addr":""},{"id":"48b9b645f16c","type":"clinic","name":"SATA CommHealth Potong Pasir Medical Centre","lat":1.329072,"lon":103.870059,"addr":"1 Siang Kuang Avenue"},{"id":"167031d06a89","type":"clinic","name":"Dover Clinic and Surgery","lat":1.304685,"lon":103.781636,"addr":"28 Dover Crescent"},{"id":"701ad364a116","type":"clinic","name":"Carelink","lat":1.325981,"lon":103.850116,"addr":"400 Balestier Road"},{"id":"b050e5c207cf","type":"clinic","name":"Tanamera Clinic","lat":1.319773,"lon":103.943998,"addr":""},{"id":"8d6d42d237b6","type":"clinic","name":"Temasek Clinic & Surgery","lat":1.319831,"lon":103.943986,"addr":""},{"id":"881381d614fb","type":"clinic","name":"Shim Clinic","lat":1.320112,"lon":103.94454,"addr":""},{"id":"e631a680308c","type":"clinic","name":"Faith Clinic","lat":1.337202,"lon":103.921278,"addr":"746 Bedok Reservoir Road"},{"id":"8b08cbf651f8","type":"clinic","name":"Shenton Medical Clinic","lat":1.337441,"lon":103.921945,"addr":""},{"id":"7e02354fdd78","type":"clinic","name":"Central Clinic Surgery","lat":1.302414,"lon":103.907218,"addr":""},{"id":"aceda7393239","type":"clinic","name":"Jinmin Clinic","lat":1.318773,"lon":103.911854,"addr":"430 Changi Road"},{"id":"f611ccaaa4d2","type":"clinic","name":"Mandarin Central & Dental Centre","lat":1.340476,"lon":103.773888,"addr":"66 Jalan Jurong Kechil"},{"id":"679c9c02f810","type":"clinic","name":"Unihealth Toa Payoh","lat":1.333547,"lon":103.849303,"addr":""},{"id":"9aa22c345fd0","type":"clinic","name":"Raffles Medical","lat":1.333908,"lon":103.849528,"addr":""},{"id":"7763877bbe6f","type":"clinic","name":"Shenton Medical Group","lat":1.382915,"lon":103.893345,"addr":""},{"id":"25ab9badfd67","type":"clinic","name":"Clinic","lat":1.371662,"lon":103.89403,"addr":""},{"id":"23c5e622fa62","type":"clinic","name":"Toh Yi Medical Clinic","lat":1.339986,"lon":103.773216,"addr":"18 Toh Yi Drive"},{"id":"7adcd871ec1e","type":"clinic","name":"Chen Family Clinic","lat":1.370236,"lon":103.872769,"addr":""},{"id":"d51b4df67850","type":"clinic","name":"LiveWell Medical","lat":1.326749,"lon":103.846558,"addr":"20 Ah Hood Road"},{"id":"8af8f5b6db4c","type":"clinic","name":"Minmed Clinic (Sengkang)","lat":1.391998,"lon":103.894921,"addr":""},{"id":"1012a27be7a1","type":"clinic","name":"Healthmark Family Clinic (Compassvale)","lat":1.395065,"lon":103.895816,"addr":""},{"id":"292e5fe2e720","type":"clinic","name":"Dr. W Family Clinic","lat":1.316485,"lon":103.805534,"addr":"8 Empress Road"},{"id":"024795ec675a","type":"clinic","name":"Yap Medicare Clinic & Surgery","lat":1.31658,"lon":103.805643,"addr":"8 Empress Road"},{"id":"f6e228a7b996","type":"clinic","name":"Garden Clinic","lat":1.353672,"lon":103.867774,"addr":"304 Serangoon Avenue 2"},{"id":"b29b3813d825","type":"clinic","name":"Liu TCM clinic","lat":1.282511,"lon":103.8256,"addr":"26 Jalan Membina"},{"id":"4d594b345da3","type":"clinic","name":"Health First Family Clinic","lat":1.282586,"lon":103.825695,"addr":"26 Jalan Membina"},{"id":"0dda20a06e24","type":"clinic","name":"Chungkiaw Clinic","lat":1.340487,"lon":103.773799,"addr":"68 Jalan Jurong Kechil"},{"id":"f0b11f3eb39c","type":"clinic","name":"Marti Derm La Formula","lat":1.304375,"lon":103.859869,"addr":"Jalan Klapa"},{"id":"6749af596d1f","type":"clinic","name":"Clinic","lat":1.345369,"lon":103.718836,"addr":""},{"id":"d4ea1bf3449a","type":"clinic","name":"VIVA Medical Group","lat":1.35752,"lon":103.940282,"addr":""},{"id":"f5ecc6c71969","type":"clinic","name":"Evangel Medical Clinic","lat":1.327553,"lon":103.924687,"addr":""},{"id":"2128dabfda3f","type":"clinic","name":"Phoenix Medical Group Novena","lat":1.321161,"lon":103.841643,"addr":"975 Thomson Road"},{"id":"2c925cc65c93","type":"clinic","name":"DA Clinic@Anchorvale","lat":1.393343,"lon":103.887061,"addr":""},{"id":"5190f1b08e64","type":"clinic","name":"Clinic","lat":1.264975,"lon":103.819043,"addr":""},{"id":"3d4d2c2880fe","type":"clinic","name":"Healthway Medical","lat":1.385479,"lon":103.901572,"addr":""},{"id":"9ae890bb9d0c","type":"clinic","name":"Rivervale Family Clinic & Surgery","lat":1.385805,"lon":103.902099,"addr":""},{"id":"0d05240879a9","type":"clinic","name":"SBCC Baby & Child Clinic (Rivervale Plaza)","lat":1.385488,"lon":103.901616,"addr":""},{"id":"8580c42f8497","type":"clinic","name":"Lifeline Medical Group","lat":1.385525,"lon":103.901593,"addr":""},{"id":"29636afec3e5","type":"clinic","name":"Sengkang Free Clinic","lat":1.384419,"lon":103.900792,"addr":""},{"id":"63b107439500","type":"clinic","name":"Mutual Healthcare Medical Clinic","lat":1.385709,"lon":103.897298,"addr":""},{"id":"3acd97c4d126","type":"clinic","name":"HeartlandHealth","lat":1.2869,"lon":103.81876,"addr":""},{"id":"9aaf8c2c2bfb","type":"clinic","name":"Providence Clinic @ Redhill","lat":1.286904,"lon":103.818823,"addr":""},{"id":"a22a014c8fba","type":"clinic","name":"SBCC Baby & Child Clinic","lat":1.2864,"lon":103.827978,"addr":""},{"id":"f73e2a7b519b","type":"clinic","name":"Yim Clinic","lat":1.286093,"lon":103.828633,"addr":""},{"id":"567ff2b70d83","type":"clinic","name":"SOG Clinic for Children","lat":1.286071,"lon":103.828933,"addr":""},{"id":"f03859763179","type":"clinic","name":"Thomson Women's Clinic","lat":1.285627,"lon":103.826855,"addr":""},{"id":"cd920cbaa3d1","type":"clinic","name":"The iClinic","lat":1.28558,"lon":103.826879,"addr":""},{"id":"13a2f3e9a891","type":"clinic","name":"Clinic","lat":1.359835,"lon":103.93178,"addr":""},{"id":"285061f722b8","type":"clinic","name":"OneCare Clinic Punggol Plaza","lat":1.394315,"lon":103.912998,"addr":""},{"id":"513643e2dbd1","type":"clinic","name":"My Family Clinic (Punggol Central)","lat":1.403537,"lon":103.905981,"addr":""},{"id":"8442f637c8f0","type":"clinic","name":"Pinnacle Family Clinic (Compassvale)","lat":1.397623,"lon":103.896954,"addr":""},{"id":"d3f7524e551f","type":"clinic","name":"My Family Clinic (Anchorvale)","lat":1.394781,"lon":103.88807,"addr":""},{"id":"ee1102ce665f","type":"clinic","name":"Neoh & Ong Medical Clinic","lat":1.320216,"lon":103.903313,"addr":""},{"id":"415103593c3a","type":"clinic","name":"Kirin Clinic & Surgery","lat":1.321159,"lon":103.903235,"addr":""},{"id":"eb2154fa4252","type":"clinic","name":"EC Family Clinic","lat":1.319892,"lon":103.903807,"addr":""},{"id":"15fa374cb3ca","type":"clinic","name":"Meden Clinic & Surgery","lat":1.288787,"lon":103.814692,"addr":""},{"id":"e55e129b46b7","type":"clinic","name":"Eye Care Clinic Bishan","lat":1.348324,"lon":103.84954,"addr":""},{"id":"7714ff6d7606","type":"clinic","name":"T P Sim Family Clinic & Surgery","lat":1.348442,"lon":103.849566,"addr":""},{"id":"a36790168085","type":"clinic","name":"Prudence Family Clinic","lat":1.349477,"lon":103.84999,"addr":""},{"id":"fe26fc7b4fb4","type":"clinic","name":"DA Clinic @ Bishan","lat":1.348322,"lon":103.849369,"addr":""},{"id":"4254f3488a9d","type":"clinic","name":"Astra Women's Specialist Centre","lat":1.348518,"lon":103.848538,"addr":""},{"id":"5338ad4e3d4b","type":"clinic","name":"Lifeline Bishan Medical Clinic","lat":1.348287,"lon":103.849532,"addr":""},{"id":"f57f9afc9401","type":"clinic","name":"The Hearing Room","lat":1.291468,"lon":103.85115,"addr":""},{"id":"241d62e8c6e7","type":"clinic","name":"Adelphi Psych Medicine Clinic","lat":1.29121,"lon":103.851479,"addr":""},{"id":"fddc6465f5b7","type":"clinic","name":"Q&M Medical Clinic (Buangkok Mrt)","lat":1.383312,"lon":103.892923,"addr":""},{"id":"25ded1bf80f7","type":"clinic","name":"Everhealth Medical Centre","lat":1.377798,"lon":103.89151,"addr":""},{"id":"d71e45407648","type":"clinic","name":"Neighbourhood Medical Clinic","lat":1.373352,"lon":103.886132,"addr":""},{"id":"7c21f357a40d","type":"clinic","name":"Hougang Specialist Eye Centre","lat":1.372138,"lon":103.88644,"addr":""},{"id":"a0d63bd1281a","type":"clinic","name":"Pow Family Clinic & Surgery","lat":1.370156,"lon":103.883961,"addr":""},{"id":"35e9d6babb6f","type":"clinic","name":"Raffles Medical","lat":1.372489,"lon":103.847451,"addr":""},{"id":"8c5fc16bafd5","type":"clinic","name":"Kids First Clinic","lat":1.37231,"lon":103.847471,"addr":""},{"id":"db8ee898d884","type":"clinic","name":"Life Family Clinic","lat":1.371457,"lon":103.846756,"addr":""},{"id":"32752fce5890","type":"clinic","name":"Parkway Shenton Medical Group","lat":1.402976,"lon":103.91289,"addr":""},{"id":"c1245620f392","type":"clinic","name":"Shinagawa Eye Centre","lat":1.304776,"lon":103.830223,"addr":""},{"id":"88572c832603","type":"clinic","name":"Olive Tree","lat":1.3061,"lon":103.828807,"addr":""},{"id":"0601dac8a80c","type":"clinic","name":"Goh Clinic & Surgery","lat":1.358606,"lon":103.884753,"addr":""},{"id":"4430d28fd3fa","type":"clinic","name":"Eastern Hougang Eye Specialist","lat":1.357898,"lon":103.883503,"addr":""},{"id":"182831917ba2","type":"clinic","name":"Lim Country Clinic","lat":1.358704,"lon":103.886724,"addr":""},{"id":"d596f502d30e","type":"clinic","name":"Healthcare Medical @ Kovan","lat":1.358714,"lon":103.886752,"addr":""},{"id":"04fcf9e2dbb1","type":"clinic","name":"Dr Chan Clinic","lat":1.359341,"lon":103.888061,"addr":""},{"id":"1d23e325a229","type":"clinic","name":"Gynae Health Clinic For Women","lat":1.359338,"lon":103.887589,"addr":""},{"id":"08a8b184291e","type":"clinic","name":"Intemedical Kovan","lat":1.359373,"lon":103.886552,"addr":""},{"id":"ea3ab8d1f69b","type":"clinic","name":"True Medical Clinic","lat":1.317463,"lon":103.892736,"addr":""},{"id":"b029c6fef59e","type":"clinic","name":"Chiro Time","lat":1.314678,"lon":103.894887,"addr":""},{"id":"5cb294f8e6b2","type":"clinic","name":"Parkway Shenton Medical Group","lat":1.319167,"lon":103.894611,"addr":""},{"id":"16d878bdd8bb","type":"clinic","name":"Kin Teck Kong","lat":1.318762,"lon":103.894357,"addr":""},{"id":"a3c0f36daeaf","type":"clinic","name":"Etern Medical Clinic (Sengkang)","lat":1.391516,"lon":103.876205,"addr":""},{"id":"e3ff73486b06","type":"clinic","name":"Island Family Clinic","lat":1.39202,"lon":103.871657,"addr":""},{"id":"b3c979271130","type":"clinic","name":"Xing Juan TCM Clinic","lat":1.391862,"lon":103.871324,"addr":""},{"id":"c54d2a88df22","type":"clinic","name":"Holistic Care Family Clinic","lat":1.391858,"lon":103.871554,"addr":""},{"id":"ded944604340","type":"clinic","name":"Doctors Inc Medical Group","lat":1.333556,"lon":103.849698,"addr":""},{"id":"2da9de1676ef","type":"clinic","name":"DA Clinic @ Anson","lat":1.27611,"lon":103.845844,"addr":""},{"id":"cafe2c2ec3d6","type":"clinic","name":"Fullerton Healthcare","lat":1.279496,"lon":103.85355,"addr":""},{"id":"49b44eef1a3c","type":"clinic","name":"Clinic","lat":1.371947,"lon":103.94671,"addr":""},{"id":"0f66382103b5","type":"clinic","name":"Pinnacle Family Clinic (Pasir Ris)","lat":1.373137,"lon":103.945592,"addr":""},{"id":"b5369c8f6e2e","type":"clinic","name":"Minmed Clinic","lat":1.372584,"lon":103.949487,"addr":"1 Pasir Ris Central Street 3"},{"id":"b57a03bcf49b","type":"clinic","name":"Raffles Medical","lat":1.372581,"lon":103.949642,"addr":"1 Pasir Ris Central Street 3"},{"id":"0d0fdc19c705","type":"clinic","name":"First Aid Station","lat":1.301362,"lon":103.91539,"addr":""},{"id":"96c3c9e7cff8","type":"clinic","name":"My Family Clinic (Segar)","lat":1.388508,"lon":103.771415,"addr":""},{"id":"db31f1fe7b45","type":"clinic","name":"Clinic","lat":1.346691,"lon":103.956723,"addr":""},{"id":"5f0e029e6f9b","type":"clinic","name":"True care Clinic","lat":1.314478,"lon":103.854103,"addr":""},{"id":"bc5a13102c41","type":"clinic","name":"Kang Clinic","lat":1.373966,"lon":103.85489,"addr":""},{"id":"92eab1bdbe5f","type":"clinic","name":"Atrio Family Clinic","lat":1.373878,"lon":103.854964,"addr":""},{"id":"502d7891f8cb","type":"clinic","name":"Gainhealth Clinic and Homecare","lat":1.373347,"lon":103.854637,"addr":""},{"id":"61f331e33ba8","type":"clinic","name":"Immanuel Dialysis Centre","lat":1.372276,"lon":103.855346,"addr":""},{"id":"8116903e8eb5","type":"clinic","name":"Chua Medico Clinic","lat":1.372317,"lon":103.855058,"addr":""},{"id":"b5e088168b39","type":"clinic","name":"Vital Care","lat":1.372598,"lon":103.854014,"addr":""},{"id":"1bf4745b358c","type":"clinic","name":"Shenton Family Medical Clinic","lat":1.276007,"lon":103.841135,"addr":""},{"id":"4bb3f014c3ae","type":"clinic","name":"Clementi Family Healthpoint Clinic & Surgery","lat":1.321035,"lon":103.766929,"addr":"308 Clementi Avenue 4"},{"id":"5d1b8ed4e1db","type":"clinic","name":"Joash Family Clinic and Surgery","lat":1.36304,"lon":103.888505,"addr":"1030 Upper Serangoon Rd"},{"id":"59479d0a2dbc","type":"clinic","name":"Cornerstone Medical","lat":1.308481,"lon":103.784703,"addr":""},{"id":"288b898cf77c","type":"clinic","name":"DA Clinic @ Taman Jurong","lat":1.326695,"lon":103.723231,"addr":""},{"id":"43e9d51b8589","type":"clinic","name":"W Y Teh Family Clinic And Surgery","lat":1.358813,"lon":103.954883,"addr":""},{"id":"63e8961d9f1c","type":"clinic","name":"Etern Medical Clinic","lat":1.404289,"lon":103.901765,"addr":""},{"id":"6bc37a54d969","type":"clinic","name":"My Family Clinic (Clementi 325)","lat":1.315278,"lon":103.766856,"addr":"325 Clementi Avenue 5"},{"id":"41f5bff7dea3","type":"clinic","name":"Frontier Family Medicine Clinic","lat":1.314287,"lon":103.765196,"addr":"3151 Commonwealth Avenue West"},{"id":"545634a34691","type":"clinic","name":"Clinic","lat":1.279933,"lon":103.84324,"addr":""},{"id":"14a946cce3ec","type":"clinic","name":"Healthway Medical","lat":1.362652,"lon":103.850733,"addr":""},{"id":"49be2edc0d04","type":"clinic","name":"Pinnacle Family Clinic","lat":1.416714,"lon":103.901768,"addr":""},{"id":"a4ae5db05d31","type":"clinic","name":"L&L Family Medicine Clinic","lat":1.35291,"lon":103.836289,"addr":""},{"id":"d8d38df69440","type":"clinic","name":"Y. C. Goh Clinic & Surgery for Women","lat":1.354912,"lon":103.830847,"addr":""},{"id":"9afec7a20375","type":"clinic","name":"KidsNexus Paediatric Centee","lat":1.355052,"lon":103.830627,"addr":""},{"id":"40e94ff08e7d","type":"clinic","name":"SpecialKids Child Health & Development Clinic","lat":1.355031,"lon":103.830618,"addr":""},{"id":"5cfbbfcbcc8e","type":"clinic","name":"Chung Hwa Medical Institution","lat":1.440225,"lon":103.802109,"addr":""},{"id":"51de7ddab943","type":"clinic","name":"Elyon Family Clinic & Surgery","lat":1.273944,"lon":103.808565,"addr":"78B Telok Blangah Street 32"},{"id":"37be77c47990","type":"clinic","name":"NKF Dialysis Centre","lat":1.282599,"lon":103.823417,"addr":""},{"id":"6fda34058f3e","type":"clinic","name":"Ma Kuang TCM Medical Centre","lat":1.368722,"lon":103.855502,"addr":""},{"id":"7f5c173a6bd4","type":"clinic","name":"\u4e2d\u534e\u533b\u9662","lat":1.332295,"lon":103.851341,"addr":"640 Lorong 4 Toa Payoh"},{"id":"45236cdeaca5","type":"clinic","name":"Blessed health tcm","lat":1.37083,"lon":103.857084,"addr":"555"},{"id":"9b55f3df59f8","type":"clinic","name":"T Medical Clinic (City Gate)","lat":1.301942,"lon":103.862349,"addr":""},{"id":"42e09d8fd780","type":"clinic","name":"GoodDoctors Medical Clinic","lat":1.316704,"lon":103.897791,"addr":""},{"id":"c878fca09248","type":"clinic","name":"Ban Kok Clinic & Surgery","lat":1.331649,"lon":103.867577,"addr":"146 Potong Pasir Avenue 1"},{"id":"f7dbcd6f5dbf","type":"clinic","name":"Chan Family Clinic","lat":1.303533,"lon":103.900545,"addr":""},{"id":"903fa1a303b7","type":"clinic","name":"Insync Medical","lat":1.304887,"lon":103.904022,"addr":""},{"id":"b775c716b6d8","type":"clinic","name":"AMK Specialist Centre","lat":1.372378,"lon":103.847195,"addr":"723 Ang Mo Kio Avenue 8"},{"id":"daffc9ae3d44","type":"clinic","name":"Raffles Medical","lat":1.334902,"lon":103.962505,"addr":""},{"id":"4ea373a3c65f","type":"clinic","name":"Northeast Medical Group","lat":1.342779,"lon":103.953639,"addr":""},{"id":"bfe098ad5445","type":"clinic","name":"Slikroutes @ Sengkang Clinic","lat":1.382528,"lon":103.891196,"addr":""},{"id":"92f88e08b273","type":"clinic","name":"Mutual Healthcare Medical Clinic","lat":1.391451,"lon":103.890165,"addr":""},{"id":"22c7923aec50","type":"clinic","name":"Kidslink Children's Clinic","lat":1.389872,"lon":103.898577,"addr":""},{"id":"d9225cd2210d","type":"clinic","name":"Kenneth Tan Medical Clinic","lat":1.399941,"lon":103.919191,"addr":""},{"id":"a091538274c4","type":"clinic","name":"Hougang Family Medicine Clinic","lat":1.375149,"lon":103.882808,"addr":""},{"id":"4170c70777b0","type":"clinic","name":"Shenton Medical Group","lat":1.335681,"lon":103.962986,"addr":""},{"id":"053492760b53","type":"clinic","name":"Trinity Medical (Punggol)","lat":1.402155,"lon":103.901325,"addr":""},{"id":"8fdde98762f7","type":"clinic","name":"Clinic","lat":1.302075,"lon":103.798097,"addr":"01-02 Tanglin Halt Road"},{"id":"2c15f0ad1da3","type":"clinic","name":"24 Hr Clinic","lat":1.372875,"lon":103.853883,"addr":""},{"id":"3280a5193752","type":"clinic","name":"Zenith Medical Clinic","lat":1.405142,"lon":103.89763,"addr":""},{"id":"422255e34358","type":"clinic","name":"Etern Medical Clinic (Punggol Sumang LRT)","lat":1.408359,"lon":103.899004,"addr":""},{"id":"cef9edb5a83b","type":"clinic","name":"Family Healthcare Clinic & Surgery","lat":1.373718,"lon":103.890841,"addr":""},{"id":"38bf95134680","type":"clinic","name":"College Clinic","lat":1.302493,"lon":103.77589,"addr":""},{"id":"58818e13e662","type":"clinic","name":"PanHealth Family Clinic (Hougang)","lat":1.375101,"lon":103.882173,"addr":""},{"id":"eda80d84c419","type":"clinic","name":"Elissa Medical Clinic","lat":1.375787,"lon":103.879696,"addr":""},{"id":"49f42096cfe5","type":"clinic","name":"Crawfurd Medical","lat":1.295706,"lon":103.858541,"addr":""},{"id":"53e0097af7ae","type":"clinic","name":"Clinic","lat":1.377929,"lon":103.955607,"addr":""},{"id":"668d40befb5f","type":"clinic","name":"Health way Medical","lat":1.38344,"lon":103.897142,"addr":""},{"id":"9f81bc670b9d","type":"clinic","name":"Chiropractic First","lat":1.37273,"lon":103.893673,"addr":""},{"id":"e33cf27c0f8b","type":"clinic","name":"Raffles Medical","lat":1.371325,"lon":103.893943,"addr":""},{"id":"28b9229e9cfc","type":"clinic","name":"Grace (SL) Medical Centre","lat":1.371829,"lon":103.893596,"addr":""},{"id":"f88bd714e48b","type":"clinic","name":"The Clinic @ Campus","lat":1.296356,"lon":103.850069,"addr":"70 Stamford Road"},{"id":"428bfcee9849","type":"clinic","name":"Healthway Medical","lat":1.368831,"lon":103.856526,"addr":""},{"id":"07f0e09620d4","type":"clinic","name":"Aspen Clinic","lat":1.358995,"lon":103.844699,"addr":""},{"id":"31fd7a34129a","type":"clinic","name":"Raffles Medical","lat":1.358694,"lon":103.844871,"addr":""},{"id":"3ac1a2272c42","type":"clinic","name":"Anderson Medical Centre","lat":1.358577,"lon":103.844881,"addr":""},{"id":"4f80d39aadf4","type":"clinic","name":"1 Bishan Medical","lat":1.359119,"lon":103.844535,"addr":""},{"id":"697b341acc56","type":"clinic","name":"The Bishan Family Doctors","lat":1.358863,"lon":103.8448,"addr":""},{"id":"9679c8ebfea1","type":"clinic","name":"Clinic","lat":1.279519,"lon":103.785691,"addr":""},{"id":"1c52d134a49f","type":"clinic","name":"Family Clinic","lat":1.320903,"lon":103.904744,"addr":""},{"id":"675fddfdc778","type":"clinic","name":"Bethesda Medical","lat":1.333807,"lon":103.887546,"addr":"601 MacPherson Road"},{"id":"f8fed5b5f640","type":"clinic","name":"Frontier Family Medicine Clinic","lat":1.33372,"lon":103.887484,"addr":"601 MacPherson Road"},{"id":"1be78f378145","type":"clinic","name":"Healthway Medical","lat":1.453148,"lon":103.816596,"addr":""},{"id":"31c4e4d77190","type":"clinic","name":"Temasek Medical Centre","lat":1.452979,"lon":103.816912,"addr":""},{"id":"f6121f846410","type":"clinic","name":"MyDoctor @Balestier","lat":1.325243,"lon":103.850801,"addr":""},{"id":"59acd5a6384d","type":"clinic","name":"Sembawang Polyclinic","lat":1.448208,"lon":103.822815,"addr":"21 21 Canberra Link"},{"id":"e131b0034a57","type":"clinic","name":"Compassvale 297A Medical Clinic","lat":1.395083,"lon":103.900574,"addr":""},{"id":"894c541718e7","type":"clinic","name":"Parkway MediCentre","lat":1.338641,"lon":103.87204,"addr":""},{"id":"2f1f609ababa","type":"clinic","name":"OEI & KOH","lat":1.335722,"lon":103.856696,"addr":""},{"id":"05fa43b1d394","type":"clinic","name":"National Health Group Diagnostics X-Ray","lat":1.334502,"lon":103.858959,"addr":""},{"id":"85237c4d05f8","type":"clinic","name":"Oaklife Family Clinic","lat":1.326768,"lon":103.842462,"addr":"592G Balestier Road"},{"id":"798d60dbc436","type":"clinic","name":"Intemedical Teck Ghee","lat":1.364108,"lon":103.84861,"addr":""},{"id":"c2875c19235c","type":"clinic","name":"Parklane Medical Centre","lat":1.300642,"lon":103.849334,"addr":""},{"id":"6598780253fa","type":"clinic","name":"Proventia Medical & Dental","lat":1.316685,"lon":103.782784,"addr":""},{"id":"7856e41b99d8","type":"clinic","name":"Pulse TCM Clinic","lat":1.316531,"lon":103.782704,"addr":""},{"id":"b0ef2bda4b84","type":"clinic","name":"Q&M Dental Center (Balestier)","lat":1.326329,"lon":103.842733,"addr":"627 Balestier Road"},{"id":"5f12bd28e5fd","type":"clinic","name":"Medlife Clinic & Surgery","lat":1.374119,"lon":103.887042,"addr":""},{"id":"5c1996109fb0","type":"clinic","name":"MyCLINQ","lat":1.374062,"lon":103.893845,"addr":""},{"id":"20c29e1562cf","type":"clinic","name":"Eiddwen Family Medicine Clinic","lat":1.309664,"lon":103.884453,"addr":"34 Cassia Crescent #01-80"},{"id":"891d8178bf00","type":"clinic","name":"Ally Health","lat":1.315092,"lon":103.766855,"addr":"139 Clementi Avenue 5"},{"id":"55a32b87e9b3","type":"clinic","name":"The Neptune Clinic","lat":1.313717,"lon":103.767057,"addr":"328 Clementi Avenue 2"},{"id":"5938a26f7293","type":"clinic","name":"Canterbury Family Clinic & Surgery","lat":1.314003,"lon":103.767058,"addr":"328 Clementi Avenue 2"},{"id":"86a8e6ce6475","type":"clinic","name":"Kinsway Medical Clinic(Beauty World)","lat":1.341823,"lon":103.776079,"addr":""},{"id":"af6fe540be32","type":"clinic","name":"Prohealth Medical Group","lat":1.356025,"lon":103.740521,"addr":""},{"id":"ba80ff780fcd","type":"clinic","name":"K C Yeo Surgery & Clinic for Women","lat":1.32547,"lon":103.842377,"addr":"1 Thomson Road"},{"id":"f1fd8a76d87b","type":"clinic","name":"Clinic","lat":1.322009,"lon":103.853098,"addr":""},{"id":"19a606b90348","type":"clinic","name":"Novena Specialist Center","lat":1.320124,"lon":103.84466,"addr":""},{"id":"4b5fea5e7ef1","type":"clinic","name":"Clinic","lat":1.336443,"lon":103.787005,"addr":""},{"id":"fc329977714e","type":"clinic","name":"Balestier Medical Clinic","lat":1.321305,"lon":103.8532,"addr":"221 Balestier Road"},{"id":"e598dd614113","type":"clinic","name":"Healthmark Medical Clinic","lat":1.399434,"lon":103.91594,"addr":""},{"id":"0866c6011303","type":"clinic","name":"St John Singapore Dementia Centre","lat":1.301685,"lon":103.86346,"addr":"420 Beach Road"},{"id":"f6db39c31824","type":"clinic","name":"Japanese Association Clinic, Singapore","lat":1.330635,"lon":103.815769,"addr":"120 Adam Road"},{"id":"3ee3bb3e6051","type":"clinic","name":"LKF Medical","lat":1.28674,"lon":103.847769,"addr":""},{"id":"ecb72d6af26b","type":"clinic","name":"Peace Family TCM Clinic","lat":1.283415,"lon":103.842972,"addr":""},{"id":"d43764ef0a40","type":"clinic","name":"Quantum Medical Imaging","lat":1.309509,"lon":103.864496,"addr":""},{"id":"c13638bd4088","type":"clinic","name":"The Clinic @ Aperia","lat":1.309664,"lon":103.864092,"addr":""},{"id":"08905bf52682","type":"clinic","name":"GP @ Joo Chiat Clinic","lat":1.312369,"lon":103.900192,"addr":"194 Joo Chiat Road"},{"id":"48fbd6c5f730","type":"clinic","name":"MobileDoctorClinic","lat":1.284861,"lon":103.846933,"addr":""},{"id":"fdf80d202011","type":"clinic","name":"NKF Dialysis Center","lat":1.396143,"lon":103.891471,"addr":""},{"id":"96976716a3dd","type":"clinic","name":"Singapore Orthopaedic Clinic","lat":1.322009,"lon":103.844195,"addr":"38 Irrawaddy Road"},{"id":"f5f8a8212687","type":"clinic","name":"The Other Clinic","lat":1.315022,"lon":103.881122,"addr":""},{"id":"e971903155ce","type":"clinic","name":"Healthway Medical","lat":1.319799,"lon":103.861451,"addr":""},{"id":"e47fb9cba1a3","type":"clinic","name":"El Shaddai","lat":1.320472,"lon":103.861989,"addr":""},{"id":"7ce7a4cb39c5","type":"clinic","name":"Tan Teoh Clinic & Surgery","lat":1.319267,"lon":103.860997,"addr":""},{"id":"a10f7cc44916","type":"clinic","name":"Yooi Clinic","lat":1.320406,"lon":103.861935,"addr":""},{"id":"f62244d08e88","type":"clinic","name":"HC Endoscopy & Piles Centre","lat":1.333133,"lon":103.849192,"addr":"190 Lorong 6 Toa Payoh"},{"id":"ada5fda0fdb6","type":"clinic","name":"Alliance Medical Centre","lat":1.298713,"lon":103.846111,"addr":"11 Orchard Road"},{"id":"85e8dda3b4ca","type":"clinic","name":"Zara Clinic","lat":1.377354,"lon":103.755501,"addr":""},{"id":"ac50da04fd10","type":"clinic","name":"Health Partners Medical Clinic","lat":1.313092,"lon":103.926267,"addr":""},{"id":"c1eb12bd1588","type":"clinic","name":"Fullerton Health Hub","lat":1.373491,"lon":103.948382,"addr":"7 Pasir Ris Central"},{"id":"6ddbd424e607","type":"clinic","name":"Parkway Shenton Medical Clinic","lat":1.373978,"lon":103.948513,"addr":"7 Pasir Ris Central"},{"id":"1116128e2c88","type":"clinic","name":"Sunbeam Medical Clinic","lat":1.380659,"lon":103.769706,"addr":"443C Fajar Road"},{"id":"2c40f34370d1","type":"clinic","name":"Winsome","lat":1.324247,"lon":103.856582,"addr":"81 Whampoa Drive"},{"id":"16d4d71fd599","type":"clinic","name":"Ooagachaga","lat":1.283426,"lon":103.844048,"addr":""},{"id":"32e1d1e55068","type":"clinic","name":"OrthoSportsAtConnexion","lat":1.31259,"lon":103.853996,"addr":""},{"id":"936182429e0c","type":"clinic","name":"Singapore Paincare TCM Wellness","lat":1.291301,"lon":103.857512,"addr":""},{"id":"0f994e75e8c8","type":"clinic","name":"Raffles Medical","lat":1.291068,"lon":103.858998,"addr":""},{"id":"7f10ef4b214a","type":"clinic","name":"X Maris B. Clinic","lat":1.302549,"lon":103.858048,"addr":"140 Arab Street"},{"id":"f1fe58a54b46","type":"clinic","name":"Voon Eye Clinic","lat":1.300501,"lon":103.849542,"addr":""},{"id":"dd4c765d0137","type":"clinic","name":"Dawson Medical Singapore","lat":1.295371,"lon":103.80947,"addr":"85 Dawson Rd, #01-05, Singapore 141085"},{"id":"004101ab2253","type":"clinic","name":"Jade Medical Clinic","lat":1.28884,"lon":103.846437,"addr":"Eu Tong Sen Street, 8 13-99"},{"id":"ffba15353c9f","type":"clinic","name":"Minmed Clinic (Redhill)","lat":1.290042,"lon":103.817089,"addr":"Alexandra View, #01-16"},{"id":"f499f6b75e94","type":"clinic","name":"Dr Plus Medical & Paincare Hougang","lat":1.370393,"lon":103.895461,"addr":""},{"id":"2f6f47f8949e","type":"clinic","name":"Trucare Medical & Surgery","lat":1.370374,"lon":103.895427,"addr":""},{"id":"33dc4b787d6a","type":"clinic","name":"Fundamental Aesthetic Medical Clinic","lat":1.370508,"lon":103.895442,"addr":""},{"id":"f1ac942de005","type":"clinic","name":"The Cheery Child Clinic","lat":1.370439,"lon":103.895465,"addr":""},{"id":"e96e53de1b94","type":"clinic","name":"Onecare Clinic","lat":1.387061,"lon":103.762125,"addr":"642 Senja Close"},{"id":"e105aaa13657","type":"clinic","name":"Singapore Chee Chung Huay Free Clinic","lat":1.331048,"lon":103.879661,"addr":"364D MacPherson Road"},{"id":"58cf62e3f04b","type":"clinic","name":"Synergy Orthopaedic Group","lat":1.322121,"lon":103.84418,"addr":"38 Irrawaddy Road"},{"id":"2d84764c288c","type":"clinic","name":"Pinnacle Family Clinic","lat":1.322411,"lon":103.763776,"addr":"209A Clementi Avenue 6"},{"id":"6ff6f2222bab","type":"clinic","name":"Bukit Timah Clinic","lat":1.324621,"lon":103.8091,"addr":""},{"id":"ac67f80f1015","type":"clinic","name":"Raffles Medical","lat":1.35397,"lon":103.945249,"addr":"#03-28 Tampines 1"},{"id":"1b7a00e94738","type":"clinic","name":"HMI Onecare Clinic","lat":1.39171,"lon":103.880058,"addr":""},{"id":"ea4067cdcbcf","type":"clinic","name":"Vitacare Family Clinic","lat":1.391653,"lon":103.879696,"addr":""},{"id":"26b17944c4a8","type":"clinic","name":"Shalom Clinic + Surgery","lat":1.286491,"lon":103.803563,"addr":""},{"id":"d2262e338481","type":"clinic","name":"Pinnacle Family Clinic","lat":1.366145,"lon":103.775101,"addr":""},{"id":"923c007011d9","type":"clinic","name":"Pioneer Medical Centre Pte Ltd","lat":1.337244,"lon":103.696832,"addr":"651 Jurong West Street 41"},{"id":"493e2f60e655","type":"clinic","name":"HMI Onecare Clinic","lat":1.378473,"lon":103.762738,"addr":""},{"id":"fb68c5807475","type":"clinic","name":"Douglas Ong Clinic for Women #03-06","lat":1.304426,"lon":103.835199,"addr":"3 Mount Elizabeth"},{"id":"42727bd490ab","type":"clinic","name":"Ridgewood Medical Clinic","lat":1.316615,"lon":103.778998,"addr":"5 Ridgewood Close"},{"id":"2b24a9e6dba8","type":"clinic","name":"Yap Family Clinic and Surgery","lat":1.368285,"lon":103.837223,"addr":""},{"id":"368a88abbbae","type":"clinic","name":"Healthway Medical","lat":1.392033,"lon":103.743044,"addr":""},{"id":"dbd570021b4a","type":"clinic","name":"Town Clinic","lat":1.300907,"lon":103.860551,"addr":""},{"id":"7176a26bab49","type":"clinic","name":"iCare Medical Centre","lat":1.289428,"lon":103.827623,"addr":"733 Havelock Road"},{"id":"07b5bccf48fb","type":"clinic","name":"River Valley Doctors","lat":1.295126,"lon":103.841715,"addr":"286 River Valley Road"},{"id":"6dc45be54c02","type":"clinic","name":"V Medical Aesthetics & Laser Clinic","lat":1.414909,"lon":103.912323,"addr":""},{"id":"c2745d374f8a","type":"clinic","name":"Slim Doc","lat":1.414909,"lon":103.912516,"addr":""},{"id":"cbf69d69a425","type":"clinic","name":"Sata CommHealth Medical Centre","lat":1.353289,"lon":103.942318,"addr":""},{"id":"0f9188c4c4fb","type":"clinic","name":"Ultimed Medical Centre & Surgical Suites (OTH)","lat":1.353793,"lon":103.939755,"addr":""},{"id":"4c2b74f5ccf0","type":"clinic","name":"Our Fernvale Family Clinic","lat":1.398335,"lon":103.876276,"addr":"465 Fernvale Road"},{"id":"2820390a2de0","type":"clinic","name":"University Health Service","lat":1.345409,"lon":103.682651,"addr":"36 Nanyang Avenue"},{"id":"917a261a5768","type":"clinic","name":"University Health Centre","lat":1.299047,"lon":103.776427,"addr":""},{"id":"11e7dcd1d931","type":"clinic","name":"Healthcare Medical @ Rail Mall","lat":1.359637,"lon":103.767638,"addr":"446 Upper Bukit Timah Road"},{"id":"8d97ba525458","type":"clinic","name":"Toa Payoh Polyclinic","lat":1.334591,"lon":103.858943,"addr":"2003 Lorong 8 Toa Payoh"},{"id":"293dd3fc99d3","type":"clinic","name":"Sian Chay Medical Institution","lat":1.395575,"lon":103.872739,"addr":"219 Jalan Kayu"},{"id":"0eee1c9bcee4","type":"clinic","name":"Queenstown Polyclinic","lat":1.298472,"lon":103.801032,"addr":"580 Stirling Road"},{"id":"384387be8e86","type":"clinic","name":"Caring Community Clinic","lat":1.309116,"lon":103.851774,"addr":"Chander Road"},{"id":"559a7a95475e","type":"clinic","name":"Kwan In Welfare Free Clinic","lat":1.320361,"lon":103.905469,"addr":"34 Jalan Eunos"},{"id":"e9daf7f314e8","type":"clinic","name":"Econ Medicare Centre","lat":1.378513,"lon":103.759369,"addr":"Choa Chu Kang Road"},{"id":"c0dfe0915fa8","type":"clinic","name":"Clinic","lat":1.321183,"lon":104.020107,"addr":""},{"id":"446eb2e5bba4","type":"clinic","name":"Trinity Mediplus","lat":1.315034,"lon":103.859801,"addr":"Lavender Street"},{"id":"21776434c615","type":"clinic","name":"Tan Kan Ming Chinese Medical Care","lat":1.324923,"lon":103.853668,"addr":"50 Kim Keat Road"},{"id":"b7a3b1d33c95","type":"clinic","name":"Jurong Camp Medical Centre","lat":1.338361,"lon":103.683921,"addr":"209"},{"id":"840278a97659","type":"clinic","name":"Yishun Polyclinic","lat":1.430467,"lon":103.83922,"addr":"2 Yishun Avenue 9"},{"id":"e653235f9d56","type":"clinic","name":"Sungei Gedong Medical Centre","lat":1.419639,"lon":103.697293,"addr":"225 Sungei Gedong Road"},{"id":"9df1d83edcbf","type":"clinic","name":"Oriental Hair Studio","lat":1.301124,"lon":103.90551,"addr":""},{"id":"b0c6cbe67823","type":"clinic","name":"Urban Homme Face and Beauty studio","lat":1.301069,"lon":103.905607,"addr":""},{"id":"e5004226a245","type":"clinic","name":"Mary Chia Beauty and Slimming Specialist","lat":1.3011,"lon":103.905662,"addr":""},{"id":"43ee5e023fac","type":"clinic","name":"Thomson Pediatric Centre","lat":1.301145,"lon":103.905729,"addr":""},{"id":"f68d55ee6805","type":"clinic","name":"Datsumo Labo","lat":1.301169,"lon":103.905763,"addr":""},{"id":"e4ac6b4764b7","type":"clinic","name":"SKN Mediesthetics and Hair Centre","lat":1.301396,"lon":103.905487,"addr":""},{"id":"a63334208b89","type":"clinic","name":"Parkway Women & Fertility Clinic","lat":1.301421,"lon":103.905695,"addr":""},{"id":"3180d77d7f8f","type":"clinic","name":"Aesthetic Work Medical Associates","lat":1.301339,"lon":103.90576,"addr":""},{"id":"d54b9e7671f8","type":"clinic","name":"Spacio Beauty","lat":1.30129,"lon":103.905794,"addr":""},{"id":"55540816cd3a","type":"clinic","name":"Kinder Clinic","lat":1.301216,"lon":103.905851,"addr":""},{"id":"c3acd4d5778f","type":"clinic","name":"Live Skin Face","lat":1.301363,"lon":103.90563,"addr":""},{"id":"4ba935a3c980","type":"clinic","name":"Eurosense","lat":1.301203,"lon":103.905594,"addr":""},{"id":"0ff2cbdcfd65","type":"clinic","name":"Sixth Sense Beauty","lat":1.301255,"lon":103.9056,"addr":""},{"id":"a62299dafa7d","type":"clinic","name":"Tampines North Polyclinic","lat":1.363331,"lon":103.937554,"addr":"35 Tampines Street 61"},{"id":"1dd70cbf0ceb","type":"clinic","name":"Bukit Panjang Polyclinic and Senja Nursing Home","lat":1.382872,"lon":103.76039,"addr":"50 Woodlands Road"},{"id":"e5cd9890add6","type":"clinic","name":"Khatib Polyclinic","lat":1.418201,"lon":103.834417,"addr":"690 Yishun Ring Road"},{"id":"658898fe60b7","type":"clinic","name":"Punggol Family Clinic","lat":1.411429,"lon":103.897722,"addr":""},{"id":"8866e8d2361b","type":"clinic","name":"Clinic","lat":1.439864,"lon":103.800627,"addr":""},{"id":"0c709c9bacc9","type":"clinic","name":"Econ Medicare","lat":1.390782,"lon":103.853317,"addr":""},{"id":"2a814080bbc0","type":"clinic","name":"Camden Medical Centre","lat":1.303144,"lon":103.823897,"addr":"1 Orchard Boulevard"},{"id":"fe9770a3e6d5","type":"clinic","name":"Clinic","lat":1.374347,"lon":103.845657,"addr":""},{"id":"10cc90abb176","type":"clinic","name":"Serangoon Polyclinic","lat":1.350874,"lon":103.87407,"addr":"587 Upper Serangoon Road"},{"id":"23badce4f2ff","type":"fire_station","name":"Jurong Fire Station","lat":1.347878,"lon":103.705288,"addr":"22 Jurong West st 26 Singapore 648126"},{"id":"9029962f3f3e","type":"fire_station","name":"Central Fire Station","lat":1.292072,"lon":103.848816,"addr":"62 Hill Street Singapore 179367"},{"id":"ef119e452afc","type":"fire_station","name":"Alexandra Fire Station","lat":1.288427,"lon":103.80283,"addr":"3 Queensway Singapore 149073"},{"id":"47a69e8aaa97","type":"fire_station","name":"Clementi Fire Station","lat":1.321883,"lon":103.761667,"addr":"Commonwealth Ave West (off Clementi Service Road) Singapore 129577"},{"id":"2cf447eed1ad","type":"fire_station","name":"Bishan Fire Station","lat":1.347935,"lon":103.838689,"addr":"1 Marymount Lane Singapore 574029"},{"id":"69e554c7e29d","type":"fire_station","name":"Jurong Island Fire Station","lat":1.271929,"lon":103.708205,"addr":"70 Jurong Island Highway, Jurong Island Singapore 627880"},{"id":"460558a2dfe8","type":"fire_station","name":"Banyan Fire Station","lat":1.254252,"lon":103.674023,"addr":"15 Banyan Road, Jurong Island Singapore 627642"},{"id":"2074ae8462ef","type":"fire_station","name":"Tampines Fire Station","lat":1.358005,"lon":103.929375,"addr":"1 Tampines Industrial Avenue 3 #01-01 Singapore 528777"},{"id":"1be208866968","type":"fire_station","name":"Paya Lebar Fire Station","lat":1.334221,"lon":103.89311,"addr":"91 Ubi Avenue 4 Singapore 408827"},{"id":"d78cf580649c","type":"fire_station","name":"Changi Fire Station","lat":1.334869,"lon":103.951334,"addr":"491 Upper Changi road Singapore 486965"},{"id":"8f619e607636","type":"fire_station","name":"Yishun Fire Station","lat":1.44416,"lon":103.836857,"addr":"533 Yishun Industrial Park A #01-01 Singapore 768774"},{"id":"c847c41b726b","type":"fire_station","name":"Ang Mo Kio Fire Station","lat":1.384988,"lon":103.845627,"addr":"2874 Ang Mo Kio Avenue 9 Singapore 569783"},{"id":"1749266dc5f3","type":"fire_station","name":"Sengkang Fire Station","lat":1.380295,"lon":103.895445,"addr":"50 Buangkok Drive Singapore 545064"},{"id":"d6ebf2d714f2","type":"fire_station","name":"Tuas Fire Station","lat":1.319663,"lon":103.661318,"addr":"7 Tuas Road Singapore 638483"},{"id":"14de13e62f7e","type":"fire_station","name":"Woodlands Fire Station","lat":1.430788,"lon":103.762362,"addr":"1 Woodlands Industrial Park D Street 2 Singapore 738782"},{"id":"cecde662cbbe","type":"fire_station","name":"Bukit Batok Fire Station","lat":1.373341,"lon":103.752802,"addr":"80 Bukit Batok Road Singapore 658072"},{"id":"d231af5d8ef6","type":"fire_station","name":"West Coast Marine Fire Station","lat":1.292508,"lon":103.762062,"addr":"60 Westcoast Ferry Road Singapore 126979"},{"id":"7765385c14f2","type":"fire_station","name":"Marina Bay Fire Station","lat":1.274736,"lon":103.848994,"addr":"70 Marina View Singapore 018962"},{"id":"e47130843b34","type":"fire_station","name":"Tuas View Fire Station","lat":1.288973,"lon":103.627509,"addr":"130 Tuas South Ave 3"},{"id":"08d3701150eb","type":"fire_station","name":"Brani Marine Fire Station","lat":1.256639,"lon":103.83871,"addr":"19 Brani Way"},{"id":"f47bd66f77b0","type":"fire_station","name":"Sentosa Fire Station","lat":1.250707,"lon":103.827512,"addr":"37 Artillery Avenue Singapore 099957"},{"id":"56adce697a26","type":"fire_station","name":"Nee Soon Central Fire Post","lat":1.419094,"lon":103.838641,"addr":""},{"id":"34efc526c145","type":"fire_station","name":"Bukit Panjang Fire Post","lat":1.376157,"lon":103.770246,"addr":""},{"id":"53654f862cad","type":"fire_station","name":"Woodlands Fire Post","lat":1.440173,"lon":103.793537,"addr":""},{"id":"09eeed5b3855","type":"fire_station","name":"Jurong East Fire Post","lat":1.347641,"lon":103.731198,"addr":"318A Jurong East Street 31"},{"id":"9565d97a5870","type":"fire_station","name":"SCDF Sungei Kadut Fire Post","lat":1.417323,"lon":103.748834,"addr":""},{"id":"6715eca04095","type":"fire_station","name":"Toa Payoh Fire Post","lat":1.336394,"lon":103.853518,"addr":""},{"id":"92c5c2d03f72","type":"fire_station","name":"Changi Airport Fire Station 1","lat":1.369881,"lon":103.983199,"addr":""},{"id":"258a74e7ce39","type":"fire_station","name":"Fire Station","lat":1.292278,"lon":103.849244,"addr":""},{"id":"beb84b4fec3a","type":"fire_station","name":"Bukit Timah Fire Post","lat":1.340594,"lon":103.771545,"addr":""},{"id":"855466d63a83","type":"fire_station","name":"Paya Lebar Fire Station","lat":1.33403,"lon":103.893548,"addr":"91 Ubi Avenue 4"},{"id":"7f7b2d9e35a1","type":"fire_station","name":"Clementi West Fire Post","lat":1.304951,"lon":103.76191,"addr":"Clementi West Street 2"},{"id":"1f2a021a7dcf","type":"fire_station","name":"Telok Blangah Fire Post","lat":1.274914,"lon":103.808631,"addr":""},{"id":"06f563302a6c","type":"fire_station","name":"Fire Station","lat":1.274685,"lon":103.707315,"addr":""},{"id":"e6c6f206f4c2","type":"fire_station","name":"Singapore Civil Defence Force Marine Command Headq","lat":1.25677,"lon":103.838966,"addr":"19 Brani Way"},{"id":"aa268f911297","type":"fire_station","name":"Airport Emergency Services","lat":1.363287,"lon":103.907892,"addr":""},{"id":"d6cb96cbdbee","type":"fire_station","name":"Kallang Fire Station","lat":1.309373,"lon":103.879017,"addr":"2 Guillemard Close"},{"id":"f140a832fc23","type":"fire_station","name":"Punggol Fire Station","lat":1.397819,"lon":103.914153,"addr":""},{"id":"a02f8ab752dc","type":"police_station","name":"Thomson Neighbourhood Police Post (Self-Help Kiosk","lat":1.354993,"lon":103.837474,"addr":"25 Sin Ming Road"},{"id":"548ff506c712","type":"police_station","name":"Dover Neighbourhood Police Post (Self-Help Kiosks ","lat":1.303802,"lon":103.78232,"addr":"3 Dover Road"},{"id":"ca7690147a30","type":"police_station","name":"Clementi Neighbourhood Police Post (Self-Help Kios","lat":1.311971,"lon":103.763803,"addr":"427 Clementi Avenue 3"},{"id":"83202f0b44f3","type":"police_station","name":"Jurong Neighbourhood Police Post (Self-Help Kiosks","lat":1.328961,"lon":103.72228,"addr":"140 Corporation Drive"},{"id":"2588cc666e9b","type":"police_station","name":"Bukit Timah Neighbourhood Police Post (Self-Help K","lat":1.339582,"lon":103.774586,"addr":"1 Toh Yi Drive"},{"id":"62e8f34743ed","type":"police_station","name":"Eunos Neighbourhood Police Post (Self-Help Kiosks ","lat":1.334399,"lon":103.914501,"addr":"629 Bedok Reservoir Road"},{"id":"91ed14b373c2","type":"police_station","name":"Tanjong Pagar Neighbourhood Police Post (Self-Help","lat":1.277305,"lon":103.829956,"addr":"144 Jalan Bukit Merah"},{"id":"68b3637feaca","type":"police_station","name":"Choa Chu Kang Neighbourhood Police Post (Self-Help","lat":1.378982,"lon":103.751779,"addr":"116 Teck Whye Lane"},{"id":"2a0767fcc11c","type":"police_station","name":"Kallang Neighbourhood Police Post (Self-Help Kiosk","lat":1.320486,"lon":103.861075,"addr":"105 Towner Road"},{"id":"f1e4bc6b04c1","type":"police_station","name":"Kim Keat Neighbourhood Police Post (Temporarily Cl","lat":1.33696,"lon":103.85949,"addr":"231 Lorong 8 Toa Payoh"},{"id":"a64f5bb310f9","type":"police_station","name":"Special Operations Command","lat":1.295712,"lon":103.800772,"addr":"Queensway Base"},{"id":"01b7e1fc0689","type":"police_station","name":"Licensing Division","lat":1.278511,"lon":103.83925,"addr":"391 New Bridge Road Police Cantonment Complex Block D"},{"id":"94672ea01231","type":"police_station","name":"Volunteer Special Constabulary Department","lat":1.278511,"lon":103.83925,"addr":"391 New Bridge Road Police Cantonment Complex Block C"},{"id":"714a1d293676","type":"police_station","name":"Choa Chu Kang Neighbourhood Police Centre","lat":1.394918,"lon":103.744728,"addr":"20 Choa Chu Kang Street 52"},{"id":"a2cac5ad61b0","type":"police_station","name":"Bukit Panjang Neighbourhood Police Centre","lat":1.386807,"lon":103.771521,"addr":"1 Segar Road"},{"id":"c29768d1f24a","type":"police_station","name":"Manpower Department","lat":1.324264,"lon":103.844976,"addr":"28 Irrawaddy Road New Phoenix Park"},{"id":"282eee80447d","type":"police_station","name":"Operation Department","lat":1.324264,"lon":103.844976,"addr":"28 Irrawaddy Road New Phoenix Park"},{"id":"4b3ffc8e4390","type":"police_station","name":"Boon Teck Neighbourhood Police Post (Self-Help Kio","lat":1.342402,"lon":103.845226,"addr":"207 Toa Payoh North"},{"id":"fe2e8d20d3f6","type":"police_station","name":"Buona Vista Neighbourhood Police Post (Self-Help K","lat":1.30936,"lon":103.793205,"addr":"13 Holland Drive"},{"id":"a7a59997da21","type":"police_station","name":"Kampong Glam Neighbourhood Police Post (Self-Help ","lat":1.303958,"lon":103.863425,"addr":"17A Beach Road"},{"id":"aaac836e3eb0","type":"police_station","name":"Bukit Batok Neighbourhood Police Centre (Temporari","lat":1.349109,"lon":103.758522,"addr":"21 Bukit Batok East Ave 4"},{"id":"110aa6ed4657","type":"police_station","name":"Woodlands East Neighbourhood Police Centre","lat":1.438886,"lon":103.802365,"addr":"3 Woodlands Drive 63"},{"id":"1dd5408ba8f9","type":"police_station","name":"Sembawang Neighbourhood Police Centre","lat":1.445278,"lon":103.819647,"addr":"4 Sembawang Crescent"},{"id":"fff074ab24ce","type":"police_station","name":"Woodlands Police Divisional HQ","lat":1.43346,"lon":103.778863,"addr":"1 Woodlands Street 12"},{"id":"fc626e4e0a06","type":"police_station","name":"Rochor Neighbourhood Police Centre","lat":1.307619,"lon":103.854219,"addr":"11 Kampong Kapor Road"},{"id":"84513e97d5fd","type":"police_station","name":"Commercial Affairs Department","lat":1.278511,"lon":103.83925,"addr":"391 New Bridge Road Police Cantonment Complex Block D"},{"id":"91c01c53bbd4","type":"police_station","name":"Tampines Neighbourhood Police Post (Self-Help Kios","lat":1.366771,"lon":103.939487,"addr":"635B Tampines North Drive 2"},{"id":"bd241987bc1d","type":"police_station","name":"Welfare Division","lat":1.278511,"lon":103.83925,"addr":"391 New Bridge Road Police Cantonment Complex Block A"},{"id":"1f500636bc73","type":"police_station","name":"Siglap Neighbourhood Police Post (Self-Help Kiosks","lat":1.313936,"lon":103.929731,"addr":"125 Upper East Coast Road"},{"id":"6d6baa2d7c20","type":"police_station","name":"Pasir Ris West Neighbourhood Police Post (Self-Hel","lat":1.378382,"lon":103.935692,"addr":"745 Pasir Ris Street 71"},{"id":"01e593a5345d","type":"police_station","name":"Punggol West Neighbourhood Police Post (Self-Help ","lat":1.401987,"lon":103.896057,"addr":"217D Sumang Walk"},{"id":"3201ca944e66","type":"police_station","name":"Marina Bay Neighbourhood Police Centre","lat":1.274736,"lon":103.848994,"addr":"70 Marina View"},{"id":"1a4b88db6fb2","type":"police_station","name":"Sengkang Neighbourhood Police Centre","lat":1.392786,"lon":103.893906,"addr":"2 Sengkang Square"},{"id":"53b555e4185b","type":"police_station","name":"Hougang Neighbourhood Police Centre","lat":1.374256,"lon":103.884984,"addr":"60 Hougang Avenue 9"},{"id":"3831df18105a","type":"police_station","name":"Bedok South Neighbourhood Police Post","lat":1.323709,"lon":103.919816,"addr":"20 Chai Chee Drive"},{"id":"69351a6b8fa2","type":"police_station","name":"Jurong West Neighbourhood Police Centre","lat":1.349333,"lon":103.714456,"addr":"700 Corporation Road"},{"id":"d4305b11434a","type":"police_station","name":"Tampines Neighbourhood Police Centre","lat":1.346248,"lon":103.938702,"addr":"6 Tampines Avenue 4"},{"id":"e8085f32bfb6","type":"police_station","name":"Bedok Police Divisional Head Quarters","lat":1.332709,"lon":103.937062,"addr":"30 Bedok North Road"},{"id":"e7df2bc23348","type":"police_station","name":"Telok Blangah Neighbourhood Police Post","lat":1.273493,"lon":103.809745,"addr":"51 Telok Blangah Drive"},{"id":"29b556b11244","type":"police_station","name":"Police Coast Guard","lat":1.257829,"lon":103.831696,"addr":"11 Brani Way"},{"id":"12a76f2016f3","type":"police_station","name":"Central Police Divisional HQ","lat":1.278511,"lon":103.83925,"addr":"391 New Bridge Road Police Cantonment Complex Block A"},{"id":"754cc9dae4a9","type":"police_station","name":"Bukit Merah East Neighbourhood Police Centre","lat":1.278511,"lon":103.83925,"addr":"391 New Bridge Road Police Cantonment Complex Block A"},{"id":"ca72e537ec60","type":"police_station","name":"Ang Mo Kio North Neighbourhood Police Centre","lat":1.384932,"lon":103.845062,"addr":"51 Ang Mo Kio Avenue 9"},{"id":"4f7c9420dd91","type":"police_station","name":"Logistics Department","lat":1.324264,"lon":103.844976,"addr":"28 Irrawaddy Road New Phoenix Park"},{"id":"1db533d7c439","type":"police_station","name":"Security Command","lat":1.338067,"lon":103.860212,"addr":"31 Lorong 8 Toa Payoh"},{"id":"7ada09798a1d","type":"police_station","name":"Clementi Police Divisional HQ","lat":1.321954,"lon":103.760139,"addr":"6 Lempeng Drive"},{"id":"b342fd24b5c4","type":"police_station","name":"Clementi Neighbourhood Police Centre","lat":1.321429,"lon":103.76035,"addr":"6 Lempeng Drive"},{"id":"daadd10d4cfd","type":"police_station","name":"Pasir Ris Neighbourhood Police Centre","lat":1.368587,"lon":103.959198,"addr":"1 Pasir Ris Drive 4"},{"id":"493ee26e0ee2","type":"police_station","name":"Airport Police Division","lat":1.343211,"lon":103.980696,"addr":"35 Airport Boulevard Road"},{"id":"66482df31ce6","type":"police_station","name":"Ang Mo Kio South Neighbourhood Police Centre","lat":1.36991,"lon":103.851653,"addr":"81 Ang Mo Kio Avenue 3"},{"id":"da522e9e2eb3","type":"police_station","name":"Ang Mo Kio Police Divisional Head Quarters","lat":1.384932,"lon":103.845062,"addr":"51 Ang Mo Kio Avenue 9"},{"id":"838e2e67779e","type":"police_station","name":"Administration & Finance Department","lat":1.324264,"lon":103.844976,"addr":"28 Irrawaddy Road New Phoenix Park"},{"id":"d316e4ab36a8","type":"police_station","name":"Geylang Neighbourhood Police Centre","lat":1.310966,"lon":103.886137,"addr":"1 Cassia Link"},{"id":"aa57b3be5a00","type":"police_station","name":"Police Intelligence Department","lat":1.324264,"lon":103.844976,"addr":"28 Irrawaddy Road New Phoenix Park"},{"id":"0cf517edad9c","type":"police_station","name":"Marine Parade Neighbourhood Police Post (Self-Help","lat":1.303561,"lon":103.907032,"addr":"74 Marine Drive"},{"id":"54c5cfccdb1d","type":"police_station","name":"Jurong Police Divisional HQ","lat":1.350887,"lon":103.702111,"addr":"2 Jurong West Ave 5"},{"id":"07fc8d6a57b4","type":"police_station","name":"Serangoon Neighbourhood Police Centre (Temporarily","lat":1.351612,"lon":103.870368,"addr":"50 Serangoon Avenue 2"},{"id":"79aefb36c7ec","type":"police_station","name":"Planning & Organisation Department","lat":1.324264,"lon":103.844976,"addr":"28 Irrawaddy Road New Phoenix Park"},{"id":"5b593a8f2327","type":"police_station","name":"Police Technology Department","lat":1.324264,"lon":103.844976,"addr":"28 Irrawaddy Road New Phoenix Park"},{"id":"1fb76bce4a82","type":"police_station","name":"Jurong East Neighbourhood Police Centre","lat":1.340126,"lon":103.737228,"addr":"92 Boon Lay Way"},{"id":"3a9195c9e939","type":"police_station","name":"Inspectorate & Compliance Office","lat":1.324264,"lon":103.844976,"addr":"28 Irrawaddy Road New Phoenix Park"},{"id":"95fd21a85be7","type":"police_station","name":"Kampong Kembangan Neighbourhood Police Post (Tempo","lat":1.323489,"lon":103.911408,"addr":"112 Lengkong Tiga #01-215"},{"id":"3fba8742b3fc","type":"police_station","name":"Geylang Serai Neighbourhood Police Post (Self-Help","lat":1.320371,"lon":103.884029,"addr":"111 Aljunied Crescent"},{"id":"38f891e121e2","type":"police_station","name":"Kim Seng Neighbourhood Police Post (Self-Help Kios","lat":1.288852,"lon":103.828137,"addr":"5 Beo Crescent"},{"id":"e16c87fa4018","type":"police_station","name":"Ayer Rajah Neighbourhood Police Post (Self-Help Ki","lat":1.321103,"lon":103.741674,"addr":"43 Teban Gardens Road"},{"id":"9ba6a22b2fc3","type":"police_station","name":"Tanah Merah Neighbourhood Police Post (Temporarily","lat":1.323436,"lon":103.942265,"addr":"51 New Upper Changi Road"},{"id":"915c8d27b273","type":"police_station","name":"Kaki Bukit Neighbourhood Police Post (Temporarily ","lat":1.334215,"lon":103.92913,"addr":"526 Bedok North Street 3"},{"id":"6624d6d79576","type":"police_station","name":"Teck Ghee Neighbourhood Police Post (Temporarily C","lat":1.365118,"lon":103.848396,"addr":"321 Ang Mo Kio Street 31"},{"id":"dc4c010fedad","type":"police_station","name":"Serangoon North Neighbourhood Police Post (Tempora","lat":1.369901,"lon":103.871207,"addr":"108 Serangoon North Avenue 1"},{"id":"03187513edf5","type":"police_station","name":"Hong Kah North Neighbourhood Police Post (Temporar","lat":1.359957,"lon":103.749307,"addr":"370 Bukit Batok Street 31"},{"id":"8513860c2a5c","type":"police_station","name":"Boon Lay Neighbourhood Police Post (Self-Help Kios","lat":1.347646,"lon":103.712933,"addr":"210 Boon Lay Place"},{"id":"a73aca459a33","type":"police_station","name":"Chong Pang Neighbourhood Police Post (Self-Help Ki","lat":1.431137,"lon":103.829957,"addr":"141 Yishun Ring Road"},{"id":"1445bd6d2e8b","type":"police_station","name":"Kreta Ayer Neighbourhood Police Post (Self-Help Ki","lat":1.286528,"lon":103.847109,"addr":"55 North Canal Road"},{"id":"cf99638c57b0","type":"police_station","name":"Changkat Neighbourhood Police Post (Self-Help Kios","lat":1.347408,"lon":103.948812,"addr":"109 Tampines Street 11"},{"id":"851f72820496","type":"police_station","name":"Paya Lebar Neighbourhood Police Post (Self-Help Ki","lat":1.352874,"lon":103.888766,"addr":"114 Hougang Avenue 1"},{"id":"c2f2ea16c726","type":"police_station","name":"Bedok Neighbourhood Police Post (Self-Help Kiosks ","lat":1.32091,"lon":103.935542,"addr":"15 Bedok South Road"},{"id":"34552335ec1a","type":"police_station","name":"Aljunied Neighbourhood Police Post (Self-Help Kios","lat":1.335772,"lon":103.879301,"addr":"13 Joo Seng Road"},{"id":"f30e8cf32880","type":"police_station","name":"Nanyang Neighbourhood Police Centre","lat":1.350887,"lon":103.702111,"addr":"2 Jurong West Ave 5"},{"id":"bb4de26e1f5d","type":"police_station","name":"Punggol Neighbourhood Police Centre","lat":1.398111,"lon":103.914089,"addr":"151 Punggol Central"},{"id":"4069fd852934","type":"police_station","name":"Warrant Enforcement Unit","lat":1.278511,"lon":103.83925,"addr":"391 New Bridge Road Police Cantonment Complex Block A"},{"id":"d8cbb59209c5","type":"police_station","name":"Woodlands West Neighbourhood Police Centre","lat":1.43346,"lon":103.778863,"addr":"1 Woodlands Street 12"},{"id":"0f2a5de8c6eb","type":"police_station","name":"Woodleigh Neighbourhood Police Centre","lat":1.338876,"lon":103.871973,"addr":"501 Upper Aljunied Road Woodleigh NPC"},{"id":"644935559b34","type":"police_station","name":"Marsiling Neighbourhood Police Post (Self-Help Kio","lat":1.442298,"lon":103.777878,"addr":"16 Marsiling Lane"},{"id":"e5cbf8913974","type":"police_station","name":"Criminal Investigation Department","lat":1.278511,"lon":103.83925,"addr":"391 New Bridge Road Police Cantonment Complex Block C"},