[
  {
    "SEARCHVAL": "ALEXANDRA HOSPITAL",
    "BLK_NO": "378",
    "ROAD_NAME": "ALEXANDRA ROAD",
    "BUILDING": "ALEXANDRA HOSPITAL",
    "ADDRESS": "378 ALEXANDRA ROAD ALEXANDRA HOSPITAL SINGAPORE 159964",
    "POSTAL": "159964",
    "X": "24312.0552194035",
    "Y": "29767.5157730971",
    "LATITUDE": "1.28548113039313",
    "LONGITUDE": "103.800180925466"
  },
  {
    "SEARCHVAL": "KHOO TECK PUAT HOSPITAL",
    "BLK_NO": "90",
    "ROAD_NAME": "YISHUN CENTRAL",
    "BUILDING": "KHOO TECK PUAT HOSPITAL",
    "ADDRESS": "90 YISHUN CENTRAL KHOO TECK PUAT HOSPITAL SINGAPORE 768828",
    "POSTAL": "768828",
    "X": "28585.3954012329",
    "Y": "45093.1608724799",
    "LATITUDE": "1.42408101871819",
    "LONGITUDE": "103.83857888869"
  },
  {
    "SEARCHVAL": "KK WOMEN'S AND CHILDREN'S HOSPITAL",
    "BLK_NO": "100",
    "ROAD_NAME": "BUKIT TIMAH ROAD",
    "BUILDING": "KK WOMEN'S AND CHILDREN'S HOSPITAL",
    "ADDRESS": "100 BUKIT TIMAH ROAD KK WOMEN'S AND CHILDREN'S HOSPITAL SINGAPORE 229899",
    "POSTAL": "229899",
    "X": "29501.8375774436",
    "Y": "32532.8559719976",
    "LATITUDE": "1.31049007429064",
    "LONGITUDE": "103.84681332162"
  },
  {
    "SEARCHVAL": "KWONG WAI SHIU HOSPITAL",
    "BLK_NO": "705",
    "ROAD_NAME": "SERANGOON ROAD",
    "BUILDING": "KWONG WAI SHIU HOSPITAL",
    "ADDRESS": "705 SERANGOON ROAD KWONG WAI SHIU HOSPITAL SINGAPORE 328127",
    "POSTAL": "328127",
    "X": "30867.5945934877",
    "Y": "33362.7065923512",
    "LATITUDE": "1.31799485288765",
    "LONGITUDE": "103.859085390156"
  },
  {
    "SEARCHVAL": "MOUNT ELIZABETH NOVENA HOSPITAL",
    "BLK_NO": "38",
    "ROAD_NAME": "IRRAWADDY ROAD",
    "BUILDING": "MOUNT ELIZABETH NOVENA HOSPITAL",
    "ADDRESS": "38 IRRAWADDY ROAD MOUNT ELIZABETH NOVENA HOSPITAL SINGAPORE 329563",
    "POSTAL": "329563",
    "X": "29212.3721063333",
    "Y": "33821.0495242234",
    "LATITUDE": "1.32214005436305",
    "LONGITUDE": "103.844212383833"
  },
  {
    "SEARCHVAL": "NG TENG FONG GENERAL HOSPITAL",
    "BLK_NO": "1",
    "ROAD_NAME": "JURONG EAST STREET 21",
    "BUILDING": "NG TENG FONG GENERAL HOSPITAL",
    "ADDRESS": "1 JURONG EAST STREET 21 NG TENG FONG GENERAL HOSPITAL SINGAPORE 609606",
    "POSTAL": "609606",
    "X": "18220.960257886",
    "Y": "35089.0880801119",
    "LATITUDE": "1.33360619131534",
    "LONGITUDE": "103.745448362928"
  },
  {
    "SEARCHVAL": "RAFFLES HOSPITAL",
    "BLK_NO": "585",
    "ROAD_NAME": "NORTH BRIDGE ROAD",
    "BUILDING": "RAFFLES HOSPITAL",
    "ADDRESS": "585 NORTH BRIDGE ROAD RAFFLES HOSPITAL SINGAPORE 188770",
    "POSTAL": "188770",
    "X": "30687.3347061072",
    "Y": "31503.5739352535",
    "LATITUDE": "1.30118153061216",
    "LONGITUDE": "103.857465501729"
  },
  {
    "SEARCHVAL": "SENGKANG COMMUNITY HOSPITAL",
    "BLK_NO": "1",
    "ROAD_NAME": "ANCHORVALE STREET",
    "BUILDING": "SENGKANG COMMUNITY HOSPITAL",
    "ADDRESS": "1 ANCHORVALE STREET SENGKANG COMMUNITY HOSPITAL SINGAPORE 544835",
    "POSTAL": "544835",
    "X": "34511.9932845896",
    "Y": "41990.6595796254",
    "LATITUDE": "1.39602238832875",
    "LONGITUDE": "103.891834051543"
  },
  {
    "SEARCHVAL": "SENGKANG GENERAL HOSPITAL",
    "BLK_NO": "1",
    "ROAD_NAME": "ANCHORVALE STREET",
    "BUILDING": "SENGKANG GENERAL HOSPITAL",
    "ADDRESS": "1 ANCHORVALE STREET SENGKANG GENERAL HOSPITAL SINGAPORE 544835",
    "POSTAL": "544835",
    "X": "34601.7032600055",
    "Y": "41957.730616387",
    "LATITUDE": "1.39572457045088",
    "LONGITUDE": "103.892640159741"
  },
  {
    "SEARCHVAL": "SENGKANG GENERAL HOSPITAL",
    "BLK_NO": "110",
    "ROAD_NAME": "SENGKANG EAST WAY",
    "BUILDING": "SENGKANG GENERAL HOSPITAL",
    "ADDRESS": "110 SENGKANG EAST WAY SENGKANG GENERAL HOSPITAL SINGAPORE 544886",
    "POSTAL": "544886",
    "X": "34660.0129869701",
    "Y": "41810.5031784792",
    "LATITUDE": "1.39439308574218",
    "LONGITUDE": "103.893164085425"
  },
  {
    "SEARCHVAL": "BRIGHT VISION HOSPITAL",
    "BLK_NO": "5",
    "ROAD_NAME": "LORONG NAPIRI",
    "BUILDING": "BRIGHT VISION HOSPITAL",
    "ADDRESS": "5 LORONG NAPIRI BRIGHT VISION HOSPITAL SINGAPORE 547530",
    "POSTAL": "547530",
    "X": "32975.9633326596",
    "Y": "39338.4436997678",
    "LATITUDE": "1.37203701009478",
    "LONGITUDE": "103.878031146933"
  },
  {
    "SEARCHVAL": "CHILDREN'S EMERGENCY (KK WOMEN'S AND CHILDREN'S HOSPITAL)",
    "BLK_NO": "100",
    "ROAD_NAME": "BUKIT TIMAH ROAD",
    "BUILDING": "CHILDREN'S EMERGENCY (KK WOMEN'S AND CHILDREN'S HOSPITAL)",
    "ADDRESS": "100 BUKIT TIMAH ROAD CHILDREN'S EMERGENCY (KK WOMEN'S AND CHILDREN'S HOSPITAL) SINGAPORE 229899",
    "POSTAL": "229899",
    "X": "29483.6695531644",
    "Y": "32528.2622606456",
    "LATITUDE": "1.31044853126535",
    "LONGITUDE": "103.846650072852"
  },
  {
    "SEARCHVAL": "FARRER PARK HOSPITAL",
    "BLK_NO": "1",
    "ROAD_NAME": "FARRER PARK STATION ROAD",
    "BUILDING": "FARRER PARK HOSPITAL",
    "ADDRESS": "1 FARRER PARK STATION ROAD FARRER PARK HOSPITAL SINGAPORE 217562",
    "POSTAL": "217562",
    "X": "30284.0821379134",
    "Y": "32783.4910100121",
    "LATITUDE": "1.31275668101216",
    "LONGITUDE": "103.853842188373"
  },
  {
    "SEARCHVAL": "GLENEAGLES HOSPITAL",
    "BLK_NO": "6A",
    "ROAD_NAME": "NAPIER ROAD",
    "BUILDING": "GLENEAGLES HOSPITAL",
    "ADDRESS": "6A NAPIER ROAD GLENEAGLES HOSPITAL SINGAPORE 258500",
    "POSTAL": "258500",
    "X": "26473.8079344053",
    "Y": "32194.2601453457",
    "LATITUDE": "1.30742793176078",
    "LONGITUDE": "103.819605016421"
  },
  {
    "SEARCHVAL": "JURONG COMMUNITY HOSPITAL",
    "BLK_NO": "1",
    "ROAD_NAME": "JURONG EAST STREET 21",
    "BUILDING": "JURONG COMMUNITY HOSPITAL",
    "ADDRESS": "1 JURONG EAST STREET 21 JURONG COMMUNITY HOSPITAL SINGAPORE 609606",
    "POSTAL": "609606",
    "X": "18353.012811888",
    "Y": "34978.8672476746",
    "LATITUDE": "1.33260943666141",
    "LONGITUDE": "103.746634963937"
  },
  {
    "SEARCHVAL": "KWONG WAI SHIU HOSPITAL @ POTONG PASIR",
    "BLK_NO": "51",
    "ROAD_NAME": "POTONG PASIR AVENUE 1",
    "BUILDING": "KWONG WAI SHIU HOSPITAL @ POTONG PASIR",
    "ADDRESS": "51 POTONG PASIR AVENUE 1 KWONG WAI SHIU HOSPITAL @ POTONG PASIR SINGAPORE 358400",
    "POSTAL": "358400",
    "X": "31412.0322322669",
    "Y": "35247.016642591",
    "LATITUDE": "1.33503582793654",
    "LONGITUDE": "103.863977651326"
  },
  {
    "SEARCHVAL": "MOUNT ALVERNIA HOSPITAL",
    "BLK_NO": "820",
    "ROAD_NAME": "THOMSON ROAD",
    "BUILDING": "MOUNT ALVERNIA HOSPITAL",
    "ADDRESS": "820 THOMSON ROAD MOUNT ALVERNIA HOSPITAL SINGAPORE 574623",
    "POSTAL": "574623",
    "X": "28475.7827736596",
    "Y": "35997.1465696562",
    "LATITUDE": "1.34181992530127",
    "LONGITUDE": "103.837593772832"
  },
  {
    "SEARCHVAL": "MOUNT ALVERNIA HOSPITAL",
    "BLK_NO": "810",
    "ROAD_NAME": "THOMSON ROAD",
    "BUILDING": "MOUNT ALVERNIA HOSPITAL",
    "ADDRESS": "810 THOMSON ROAD MOUNT ALVERNIA HOSPITAL SINGAPORE 574625",
    "POSTAL": "574625",
    "X": "28413.2508748425",
    "Y": "35963.4573957399",
    "LATITUDE": "1.341515253293",
    "LONGITUDE": "103.837031885724"
  },
  {
    "SEARCHVAL": "MOUNT ELIZABETH HOSPITAL",
    "BLK_NO": "3",
    "ROAD_NAME": "MOUNT ELIZABETH",
    "BUILDING": "MOUNT ELIZABETH HOSPITAL",
    "ADDRESS": "3 MOUNT ELIZABETH MOUNT ELIZABETH HOSPITAL SINGAPORE 228510",
    "POSTAL": "228510",
    "X": "28239.8211395955",
    "Y": "31970.9020391665",
    "LATITUDE": "1.30540799662074",
    "LONGITUDE": "103.835473484678"
  },
  {
    "SEARCHVAL": "YISHUN COMMUNITY HOSPITAL",
    "BLK_NO": "2",
    "ROAD_NAME": "YISHUN CENTRAL 2",
    "BUILDING": "YISHUN COMMUNITY HOSPITAL",
    "ADDRESS": "2 YISHUN CENTRAL 2 YISHUN COMMUNITY HOSPITAL SINGAPORE 768024",
    "POSTAL": "768024",
    "X": "28436.6428504307",
    "Y": "45058.488533916",
    "LATITUDE": "1.4237674572872",
    "LONGITUDE": "103.837242211173"
  },
  {
    "SEARCHVAL": "24-HOUR WALK-IN CLINIC (MOUNT ALVERNIA HOSPITAL)",
    "BLK_NO": "820",
    "ROAD_NAME": "THOMSON ROAD",
    "BUILDING": "24-HOUR WALK-IN CLINIC (MOUNT ALVERNIA HOSPITAL)",
    "ADDRESS": "820 THOMSON ROAD 24-HOUR WALK-IN CLINIC (MOUNT ALVERNIA HOSPITAL) SINGAPORE 574623",
    "POSTAL": "574623",
    "X": "28495.889401759",
    "Y": "35961.6575403567",
    "LATITUDE": "1.34149897479709",
    "LONGITUDE": "103.837774442377"
  },
  {
    "SEARCHVAL": "24-HOUR WALK-IN CLINIC (MOUNT ELIZABETH NOVENA HOSPITAL)",
    "BLK_NO": "38",
    "ROAD_NAME": "IRRAWADDY ROAD",
    "BUILDING": "24-HOUR WALK-IN CLINIC (MOUNT ELIZABETH NOVENA HOSPITAL)",
    "ADDRESS": "38 IRRAWADDY ROAD 24-HOUR WALK-IN CLINIC (MOUNT ELIZABETH NOVENA HOSPITAL) SINGAPORE 329563",
    "POSTAL": "329563",
    "X": "29224.0700161448",
    "Y": "33817.7035196964",
    "LATITUDE": "1.32210979381602",
    "LONGITUDE": "103.844317495607"
  },
  {
    "SEARCHVAL": "ANG MO KIO-THYE HUA KWAN HOSPITAL",
    "BLK_NO": "17",
    "ROAD_NAME": "ANG MO KIO AVENUE 9",
    "BUILDING": "ANG MO KIO-THYE HUA KWAN HOSPITAL",
    "ADDRESS": "17 ANG MO KIO AVENUE 9 ANG MO KIO-THYE HUA KWAN HOSPITAL SINGAPORE 569766",
    "POSTAL": "569766",
    "X": "28783.2767033745",
    "Y": "40664.7969768383",
    "LATITUDE": "1.38403248432085",
    "LONGITUDE": "103.840356912671"
  },
  {
    "SEARCHVAL": "MOUNT ELIZABETH HOSPITAL/MEDICAL CENTRE",
    "BLK_NO": "3",
    "ROAD_NAME": "MOUNT ELIZABETH",
    "BUILDING": "MOUNT ELIZABETH HOSPITAL/MEDICAL CENTRE",
    "ADDRESS": "3 MOUNT ELIZABETH MOUNT ELIZABETH HOSPITAL/MEDICAL CENTRE SINGAPORE 228510",
    "POSTAL": "228510",
    "X": "28235.3087583147",
    "Y": "31942.9127503354",
    "LATITUDE": "1.30515487138921",
    "LONGITUDE": "103.835432938605"
  },
  {
    "SEARCHVAL": "NG TENG FONG GENERAL HOSPITAL (TOWER A)",
    "BLK_NO": "1",
    "ROAD_NAME": "JURONG EAST STREET 21",
    "BUILDING": "NG TENG FONG GENERAL HOSPITAL (TOWER A)",
    "ADDRESS": "1 JURONG EAST STREET 21 NG TENG FONG GENERAL HOSPITAL (TOWER A) SINGAPORE 609606",
    "POSTAL": "609606",
    "X": "18084.4625477958",
    "Y": "35208.1383860819",
    "LATITUDE": "1.33468279439727",
    "LONGITUDE": "103.74422181587"
  },
  {
    "SEARCHVAL": "SAINT ANDREW'S COMMUNITY HOSPITAL",
    "BLK_NO": "8",
    "ROAD_NAME": "SIMEI STREET 3",
    "BUILDING": "SAINT ANDREW'S COMMUNITY HOSPITAL",
    "ADDRESS": "8 SIMEI STREET 3 SAINT ANDREW'S COMMUNITY HOSPITAL SINGAPORE 529895",
    "POSTAL": "529895",
    "X": "40851.7805638546",
    "Y": "35982.6965131592",
    "LATITUDE": "1.34168650601146",
    "LONGITUDE": "103.948799458078"
  },
  {
    "SEARCHVAL": "SAINT ANDREW'S MISSION HOSPITAL",
    "BLK_NO": "8",
    "ROAD_NAME": "SIMEI STREET 3",
    "BUILDING": "SAINT ANDREW'S MISSION HOSPITAL",
    "ADDRESS": "8 SIMEI STREET 3 SAINT ANDREW'S MISSION HOSPITAL SINGAPORE 529895",
    "POSTAL": "529895",
    "X": "40847.3257522788",
    "Y": "35992.6297087148",
    "LATITUDE": "1.34177634002278",
    "LONGITUDE": "103.948759433216"
  },
  {
    "SEARCHVAL": "SAINT LUKE'S HOSPITAL-DAY REHABILITATION",
    "BLK_NO": "2",
    "ROAD_NAME": "BUKIT BATOK STREET 11",
    "BUILDING": "SAINT LUKE'S HOSPITAL-DAY REHABILITATION",
    "ADDRESS": "2 BUKIT BATOK STREET 11 SAINT LUKE'S HOSPITAL-DAY REHABILITATION SINGAPORE 659674",
    "POSTAL": "659674",
    "X": "17823.6390340496",
    "Y": "36850.5497372504",
    "LATITUDE": "1.3495360738959",
    "LONGITUDE": "103.741877617968"
  },
  {
    "SEARCHVAL": "SINGAPORE TURF CLUB EQUINE HOSPITAL",
    "BLK_NO": "1",
    "ROAD_NAME": "TURF CLUB AVENUE",
    "BUILDING": "SINGAPORE TURF CLUB EQUINE HOSPITAL",
    "ADDRESS": "1 TURF CLUB AVENUE SINGAPORE TURF CLUB EQUINE HOSPITAL SINGAPORE 738078",
    "POSTAL": "738078",
    "X": "20138.3041801956",
    "Y": "44929.6076408569",
    "LATITUDE": "1.42260081974821",
    "LONGITUDE": "103.762674152629"
  },
  {
    "SEARCHVAL": "ST LUKE'S HOSPITAL",
    "BLK_NO": "2",
    "ROAD_NAME": "BUKIT BATOK STREET 11",
    "BUILDING": "ST LUKE'S HOSPITAL",
    "ADDRESS": "2 BUKIT BATOK STREET 11 ST LUKE'S HOSPITAL SINGAPORE 659674",
    "POSTAL": "659674",
    "X": "17857.5527661378",
    "Y": "36857.6626226213",
    "LATITUDE": "1.34960041173064",
    "LONGITUDE": "103.742182351385"
  },
  {
    "SEARCHVAL": "24-HOUR WALK-IN CLINIC (GLENEAGLES HOSPITAL)",
    "BLK_NO": "6A",
    "ROAD_NAME": "NAPIER ROAD",
    "BUILDING": "24-HOUR WALK-IN CLINIC (GLENEAGLES HOSPITAL)",
    "ADDRESS": "6A NAPIER ROAD 24-HOUR WALK-IN CLINIC (GLENEAGLES HOSPITAL) SINGAPORE 258500",
    "POSTAL": "258500",
    "X": "26453.3162672846",
    "Y": "32187.2722970173",
    "LATITUDE": "1.30736473510568",
    "LONGITUDE": "103.819420889381"
  },
  {
    "SEARCHVAL": "CRAWFURD HOSPITAL PTE LTD",
    "BLK_NO": "19",
    "ROAD_NAME": "ADAM ROAD",
    "BUILDING": "CRAWFURD HOSPITAL PTE LTD",
    "ADDRESS": "19 ADAM ROAD CRAWFURD HOSPITAL PTE LTD SINGAPORE 289891",
    "POSTAL": "289891",
    "X": "25774.1583452225",
    "Y": "34336.6009127423",
    "LATITUDE": "1.32680246125855",
    "LONGITUDE": "103.813318177207"
  },
  {
    "SEARCHVAL": "GENERAL OUTPATIENT CLINIC (ANG MO KIO-THYE HUA KWAN HOSPITAL)",
    "BLK_NO": "17",
    "ROAD_NAME": "ANG MO KIO AVENUE 9",
    "BUILDING": "GENERAL OUTPATIENT CLINIC (ANG MO KIO-THYE HUA KWAN HOSPITAL)",
    "ADDRESS": "17 ANG MO KIO AVENUE 9 GENERAL OUTPATIENT CLINIC (ANG MO KIO-THYE HUA KWAN HOSPITAL) SINGAPORE 569766",
    "POSTAL": "569766",
    "X": "28783.1676478293",
    "Y": "40663.3569775131",
    "LATITUDE": "1.38401946148579",
    "LONGITUDE": "103.840355932686"
  },
  {
    "SEARCHVAL": "H.S. OF KANDANG KERBAU HOSPITAL (HISTORIC SITE)",
    "BLK_NO": "",
    "ROAD_NAME": "NIL",
    "BUILDING": "H.S. OF KANDANG KERBAU HOSPITAL (HISTORIC SITE)",
    "ADDRESS": "H.S. OF KANDANG KERBAU HOSPITAL (HISTORIC SITE)",
    "POSTAL": "NIL",
    "X": "29830.9501723843",
    "Y": "32382.6472890358",
    "LATITUDE": "1.30913162222211",
    "LONGITUDE": "103.849770549731"
  },
  {
    "SEARCHVAL": "H.S. OF WW II COMMEMORATIVE SIGNBOARD (ALEXANDRA HOSPITAL) (HISTORIC SITE)",
    "BLK_NO": "",
    "ROAD_NAME": "NIL",
    "BUILDING": "H.S. OF WW II COMMEMORATIVE SIGNBOARD (ALEXANDRA HOSPITAL) (HISTORIC SITE)",
    "ADDRESS": "H.S. OF WW II COMMEMORATIVE SIGNBOARD (ALEXANDRA HOSPITAL) (HISTORIC SITE)",
    "POSTAL": "NIL",
    "X": "24443.3896049559",
    "Y": "29922.1938870717",
    "LATITUDE": "1.28687999989047",
    "LONGITUDE": "103.801360999735"
  },
  {
    "SEARCHVAL": "HOSPITAL BOULEVARD",
    "BLK_NO": "",
    "ROAD_NAME": "HOSPITAL BOULEVARD",
    "BUILDING": "NIL",
    "ADDRESS": "HOSPITAL BOULEVARD",
    "POSTAL": "NIL",
    "X": "28121.3343932154",
    "Y": "28890.6472905902",
    "LATITUDE": "1.27755125569817",
    "LONGITUDE": "103.834408814227"
  },
  {
    "SEARCHVAL": "HOSPITAL DRIVE",
    "BLK_NO": "",
    "ROAD_NAME": "HOSPITAL DRIVE",
    "BUILDING": "NIL",
    "ADDRESS": "HOSPITAL DRIVE",
    "POSTAL": "NIL",
    "X": "28310.4855532324",
    "Y": "28941.2574285313",
    "LATITUDE": "1.27800899793967",
    "LONGITUDE": "103.836108349102"
  },
  {
    "SEARCHVAL": "NKF DIALYSIS CENTRE SENGKANG COMMUNITY HOSPITAL",
    "BLK_NO": "1",
    "ROAD_NAME": "ANCHORVALE STREET",
    "BUILDING": "NKF DIALYSIS CENTRE SENGKANG COMMUNITY HOSPITAL",
    "ADDRESS": "1 ANCHORVALE STREET NKF DIALYSIS CENTRE SENGKANG COMMUNITY HOSPITAL SINGAPORE 544835",
    "POSTAL": "544835",
    "X": "34436.0418935837",
    "Y": "42016.3872144446",
    "LATITUDE": "1.39625507668544",
    "LONGITUDE": "103.89115157341"
  },
  {
    "SEARCHVAL": "OUTPATIENT CLINIC (MOUNT ELIZABETH HOSPITAL)",
    "BLK_NO": "3",
    "ROAD_NAME": "MOUNT ELIZABETH",
    "BUILDING": "OUTPATIENT CLINIC (MOUNT ELIZABETH HOSPITAL)",
    "ADDRESS": "3 MOUNT ELIZABETH OUTPATIENT CLINIC (MOUNT ELIZABETH HOSPITAL) SINGAPORE 228510",
    "POSTAL": "228510",
    "X": "28239.8211395955",
    "Y": "31970.9020391665",
    "LATITUDE": "1.30540799662074",
    "LONGITUDE": "103.835473484678"
  },
  {
    "SEARCHVAL": "SECOND HOSPITAL AVENUE",
    "BLK_NO": "",
    "ROAD_NAME": "SECOND HOSPITAL AVENUE",
    "BUILDING": "NIL",
    "ADDRESS": "SECOND HOSPITAL AVENUE",
    "POSTAL": "NIL",
    "X": "28503.7581991761",
    "Y": "29215.2868098973",
    "LATITUDE": "1.28048689140696",
    "LONGITUDE": "103.837844773049"
  },
  {
    "SEARCHVAL": "24 HOUR WALK-IN CLINIC ACCIDENT & EMERGENCY (RAFFLES HOSPITAL)",
    "BLK_NO": "585",
    "ROAD_NAME": "NORTH BRIDGE ROAD",
    "BUILDING": "24 HOUR WALK-IN CLINIC ACCIDENT & EMERGENCY (RAFFLES HOSPITAL)",
    "ADDRESS": "585 NORTH BRIDGE ROAD 24 HOUR WALK-IN CLINIC ACCIDENT & EMERGENCY (RAFFLES HOSPITAL) SINGAPORE 188770",
    "POSTAL": "188770",
    "X": "30662.6522853011",
    "Y": "31499.3461032882",
    "LATITUDE": "1.30114329771677",
    "LONGITUDE": "103.857243718624"
  },
  {
    "SEARCHVAL": "FIRST HOSPITAL AVENUE",
    "BLK_NO": "",
    "ROAD_NAME": "FIRST HOSPITAL AVENUE",
    "BUILDING": "NIL",
    "ADDRESS": "FIRST HOSPITAL AVENUE",
    "POSTAL": "NIL",
    "X": "28552.8971324853",
    "Y": "29170.6026842861",
    "LATITUDE": "1.28008306927363",
    "LONGITUDE": "103.838286548469"
  },
  {
    "SEARCHVAL": "HOSPITAL CRESCENT",
    "BLK_NO": "",
    "ROAD_NAME": "HOSPITAL CRESCENT",
    "BUILDING": "NIL",
    "ADDRESS": "HOSPITAL CRESCENT",
    "POSTAL": "NIL",
    "X": "28161.2897761221",
    "Y": "28981.1706805851",
    "LATITUDE": "1.27837120221214",
    "LONGITUDE": "103.834769242948"
  },
  {
    "SEARCHVAL": "NG TENG FONG GENERAL HOSPITAL (TOWER B)",
    "BLK_NO": "1",
    "ROAD_NAME": "JURONG EAST STREET 21",
    "BUILDING": "NG TENG FONG GENERAL HOSPITAL (TOWER B)",
    "ADDRESS": "1 JURONG EAST STREET 21 NG TENG FONG GENERAL HOSPITAL (TOWER B) SINGAPORE 609606",
    "POSTAL": "609606",
    "X": "18234.1473524962",
    "Y": "35073.2668839507",
    "LATITUDE": "1.33346311444808",
    "LONGITUDE": "103.745566861424"
  },
  {
    "SEARCHVAL": "NG TENG FONG GENERAL HOSPITAL (TOWER C)",
    "BLK_NO": "1",
    "ROAD_NAME": "JURONG EAST STREET 21",
    "BUILDING": "NG TENG FONG GENERAL HOSPITAL (TOWER C)",
    "ADDRESS": "1 JURONG EAST STREET 21 NG TENG FONG GENERAL HOSPITAL (TOWER C) SINGAPORE 609606",
    "POSTAL": "609606",
    "X": "18351.6424289253",
    "Y": "34987.5133274905",
    "LATITUDE": "1.33268762821723",
    "LONGITUDE": "103.746622647549"
  },
  {
    "SEARCHVAL": "NKF DIALYSIS CENTRE SENGKANG COMMUNITY HOSPITAL",
    "BLK_NO": "1",
    "ROAD_NAME": "ANCHORVALE STREET",
    "BUILDING": "NKF DIALYSIS CENTRE SENGKANG COMMUNITY HOSPITAL",
    "ADDRESS": "1 ANCHORVALE STREET NKF DIALYSIS CENTRE SENGKANG COMMUNITY HOSPITAL SINGAPORE 544835",
    "POSTAL": "544835",
    "X": "34436.0418935837",
    "Y": "42016.3872144446",
    "LATITUDE": "1.39625507668544",
    "LONGITUDE": "103.89115157341"
  },
  {
    "SEARCHVAL": "OUTPATIENT CLINIC (MOUNT ELIZABETH HOSPITAL)",
    "BLK_NO": "3",
    "ROAD_NAME": "MOUNT ELIZABETH",
    "BUILDING": "OUTPATIENT CLINIC (MOUNT ELIZABETH HOSPITAL)",
    "ADDRESS": "3 MOUNT ELIZABETH OUTPATIENT CLINIC (MOUNT ELIZABETH HOSPITAL) SINGAPORE 228510",
    "POSTAL": "228510",
    "X": "28239.8211395955",
    "Y": "31970.9020391665",
    "LATITUDE": "1.30540799662074",
    "LONGITUDE": "103.835473484678"
  },
  {
    "SEARCHVAL": "PARKWAY EAST HOSPITAL",
    "BLK_NO": "321",
    "ROAD_NAME": "JOO CHIAT PLACE",
    "BUILDING": "PARKWAY EAST HOSPITAL",
    "ADDRESS": "321 JOO CHIAT PLACE PARKWAY EAST HOSPITAL SINGAPORE 427990",
    "POSTAL": "427990",
    "X": "36395.5561393835",
    "Y": "33041.4194516521",
    "LATITUDE": "1.31508823271314",
    "LONGITUDE": "103.908756858682"
  },
  {
    "SEARCHVAL": "THIRD HOSPITAL AVENUE",
    "BLK_NO": "",
    "ROAD_NAME": "THIRD HOSPITAL AVENUE",
    "BUILDING": "NIL",
    "ADDRESS": "THIRD HOSPITAL AVENUE",
    "POSTAL": "NIL",
    "X": "28247.1673003156",
    "Y": "29253.6924140379",
    "LATITUDE": "1.28083450777777",
    "LONGITUDE": "103.835539472164"
  },
  {
    "SEARCHVAL": "WOMEN'S 24-HOUR CLINIC (KK WOMEN'S AND CHILDREN'S HOSPITAL)",
    "BLK_NO": "100",
    "ROAD_NAME": "BUKIT TIMAH ROAD",
    "BUILDING": "WOMEN'S 24-HOUR CLINIC (KK WOMEN'S AND CHILDREN'S HOSPITAL)",
    "ADDRESS": "100 BUKIT TIMAH ROAD WOMEN'S 24-HOUR CLINIC (KK WOMEN'S AND CHILDREN'S HOSPITAL) SINGAPORE 229899",
    "POSTAL": "229899",
    "X": "29483.6695531644",
    "Y": "32528.2622606456",
    "LATITUDE": "1.31044853126535",
    "LONGITUDE": "103.846650072852"
  },
  {
    "SEARCHVAL": "MOUNT ALVERNIA HOSPITAL",
    "BLK_NO": "820A",
    "ROAD_NAME": "THOMSON ROAD",
    "BUILDING": "MOUNT ALVERNIA HOSPITAL",
    "ADDRESS": "820A THOMSON ROAD MOUNT ALVERNIA HOSPITAL SINGAPORE 574626",
    "POSTAL": "574626",
    "X": "28475.7828039275",
    "Y": "35997.1465999242",
    "LATITUDE": "1.34181992557501",
    "LONGITUDE": "103.837593773104"
  },
  {
    "SEARCHVAL": "PARKWAY EAST HOSPITAL",
    "BLK_NO": "319",
    "ROAD_NAME": "JOO CHIAT PLACE",
    "BUILDING": "PARKWAY EAST HOSPITAL",
    "ADDRESS": "319 JOO CHIAT PLACE PARKWAY EAST HOSPITAL SINGAPORE 427989",
    "POSTAL": "427989",
    "X": "36418.8218974797",
    "Y": "33044.6383911837",
    "LATITUDE": "1.31511733727463",
    "LONGITUDE": "103.908965913933"
  }
]