[
  {
    "SEARCHVAL": "ANG MO KIO POLYCLINIC",
    "BLK_NO": "21",
    "ROAD_NAME": "ANG MO KIO CENTRAL 2",
    "BUILDING": "ANG MO KIO POLYCLINIC",
    "ADDRESS": "21 ANG MO KIO CENTRAL 2 ANG MO KIO POLYCLINIC SINGAPORE 569666",
    "POSTAL": "569666",
    "X": "29375.4267939981",
    "Y": "39591.3498051371",
    "LATITUDE": "1.3743245905856",
    "LONGITUDE": "103.845677779279"
  },
  {
    "SEARCHVAL": "CLEMENTI POLYCLINIC",
    "BLK_NO": "451",
    "ROAD_NAME": "CLEMENTI AVENUE 3",
    "BUILDING": "CLEMENTI POLYCLINIC",
    "ADDRESS": "451 CLEMENTI AVENUE 3 CLEMENTI POLYCLINIC SINGAPORE 120451",
    "POSTAL": "120451",
    "X": "20449.8200590517",
    "Y": "32753.1106715389",
    "LATITUDE": "1.31248109025097",
    "LONGITUDE": "103.765476495005"
  },
  {
    "SEARCHVAL": "EUNOS POLYCLINIC",
    "BLK_NO": "1",
    "ROAD_NAME": "CHIN CHENG AVENUE",
    "BUILDING": "EUNOS POLYCLINIC",
    "ADDRESS": "1 CHIN CHENG AVENUE EUNOS POLYCLINIC SINGAPORE 429400",
    "POSTAL": "429400",
    "X": "36063.9352366319",
    "Y": "33290.1316857319",
    "LATITUDE": "1.31733758533419",
    "LONGITUDE": "103.905777145209"
  },
  {
    "SEARCHVAL": "GEYLANG POLYCLINIC",
    "BLK_NO": "21",
    "ROAD_NAME": "GEYLANG EAST CENTRAL",
    "BUILDING": "GEYLANG POLYCLINIC",
    "ADDRESS": "21 GEYLANG EAST CENTRAL GEYLANG POLYCLINIC SINGAPORE 389707",
    "POSTAL": "389707",
    "X": "33992.6941445954",
    "Y": "33528.486518465",
    "LATITUDE": "1.31949365581957",
    "LONGITUDE": "103.887166041622"
  },
  {
    "SEARCHVAL": "HOUGANG POLYCLINIC",
    "BLK_NO": "89",
    "ROAD_NAME": "HOUGANG AVENUE 4",
    "BUILDING": "HOUGANG POLYCLINIC",
    "ADDRESS": "89 HOUGANG AVENUE 4 HOUGANG POLYCLINIC SINGAPORE 538829",
    "POSTAL": "538829",
    "X": "34196.8316573631",
    "Y": "39102.9256127384",
    "LATITUDE": "1.3699068381066",
    "LONGITUDE": "103.88900146446"
  },
  {
    "SEARCHVAL": "JURONG POLYCLINIC",
    "BLK_NO": "190",
    "ROAD_NAME": "JURONG EAST AVENUE 1",
    "BUILDING": "JURONG POLYCLINIC",
    "ADDRESS": "190 JURONG EAST AVENUE 1 JURONG POLYCLINIC SINGAPORE 609788",
    "POSTAL": "609788",
    "X": "16581.6821575863",
    "Y": "36870.9144301806",
    "LATITUDE": "1.34971979663763",
    "LONGITUDE": "103.730717863166"
  },
  {
    "SEARCHVAL": "KALLANG POLYCLINIC AND LONG TERM CARE",
    "BLK_NO": "701",
    "ROAD_NAME": "SERANGOON ROAD",
    "BUILDING": "KALLANG POLYCLINIC AND LONG TERM CARE",
    "ADDRESS": "701 SERANGOON ROAD KALLANG POLYCLINIC AND LONG TERM CARE SINGAPORE 328263",
    "POSTAL": "328263",
    "X": "30830.522942123",
    "Y": "33228.9232847709",
    "LATITUDE": "1.31678496747374",
    "LONGITUDE": "103.858752270079"
  },
  {
    "SEARCHVAL": "NATIONAL UNIVERSITY POLYCLINICS (BUKIT PANJANG POLYCLINIC)",
    "BLK_NO": "50",
    "ROAD_NAME": "WOODLANDS ROAD",
    "BUILDING": "NATIONAL UNIVERSITY POLYCLINICS (BUKIT PANJANG POLYCLINIC)",
    "ADDRESS": "50 WOODLANDS ROAD NATIONAL UNIVERSITY POLYCLINICS (BUKIT PANJANG POLYCLINIC) SINGAPORE 677726",
    "POSTAL": "677726",
    "X": "19862.2367110066",
    "Y": "40523.2849817611",
    "LATITUDE": "1.38275157725546",
    "LONGITUDE": "103.760194676062"
  },
  {
    "SEARCHVAL": "POLY MARINA SINGAPORE POLYTECHNIC",
    "BLK_NO": "50",
    "ROAD_NAME": "WEST COAST FERRY ROAD",
    "BUILDING": "POLY MARINA SINGAPORE POLYTECHNIC",
    "ADDRESS": "50 WEST COAST FERRY ROAD POLY MARINA SINGAPORE POLYTECHNIC SINGAPORE 126980",
    "POSTAL": "126980",
    "X": "20185.3108734647",
    "Y": "30700.8445482273",
    "LATITUDE": "1.29392106625692",
    "LONGITUDE": "103.763100265016"
  },
  {
    "SEARCHVAL": "TAMPINES POLYCLINIC",
    "BLK_NO": "1",
    "ROAD_NAME": "TAMPINES STREET 41",
    "BUILDING": "TAMPINES POLYCLINIC",
    "ADDRESS": "1 TAMPINES STREET 41 TAMPINES POLYCLINIC SINGAPORE 529203",
    "POSTAL": "529203",
    "X": "40523.3977602683",
    "Y": "37710.2467688434",
    "LATITUDE": "1.35730996422406",
    "LONGITUDE": "103.945849465407"
  },
  {
    "SEARCHVAL": "BUKIT BATOK POLYCLINIC",
    "BLK_NO": "50",
    "ROAD_NAME": "BUKIT BATOK WEST AVENUE 3",
    "BUILDING": "BUKIT BATOK POLYCLINIC",
    "ADDRESS": "50 BUKIT BATOK WEST AVENUE 3 BUKIT BATOK POLYCLINIC SINGAPORE 659164",
    "POSTAL": "659164",
    "X": "18485.2222751183",
    "Y": "37124.6524208132",
    "LATITUDE": "1.35201517590477",
    "LONGITUDE": "103.747822265461"
  },
  {
    "SEARCHVAL": "CHOA CHU KANG POLYCLINIC",
    "BLK_NO": "2",
    "ROAD_NAME": "TECK WHYE CRESCENT",
    "BUILDING": "CHOA CHU KANG POLYCLINIC",
    "ADDRESS": "2 TECK WHYE CRESCENT CHOA CHU KANG POLYCLINIC SINGAPORE 688846",
    "POSTAL": "688846",
    "X": "18814.1520211697",
    "Y": "40477.963337414",
    "LATITUDE": "1.38234139419018",
    "LONGITUDE": "103.750776869899"
  },
  {
    "SEARCHVAL": "NATIONAL HEALTHCARE GROUP POLYCLINICS (WOODLANDS POLYCLINIC)",
    "BLK_NO": "10",
    "ROAD_NAME": "WOODLANDS STREET 31",
    "BUILDING": "NATIONAL HEALTHCARE GROUP POLYCLINICS (WOODLANDS POLYCLINIC)",
    "ADDRESS": "10 WOODLANDS STREET 31 NATIONAL HEALTHCARE GROUP POLYCLINICS (WOODLANDS POLYCLINIC) SINGAPORE 738579",
    "POSTAL": "738579",
    "X": "21533.7095035268",
    "Y": "45846.5019602068",
    "LATITUDE": "1.43089322828279",
    "LONGITUDE": "103.775212914803"
  },
  {
    "SEARCHVAL": "NATIONAL UNIVERSITY POLYCLINICS (PIONEER POLYCLINIC)",
    "BLK_NO": "26",
    "ROAD_NAME": "JURONG WEST STREET 61",
    "BUILDING": "NATIONAL UNIVERSITY POLYCLINICS (PIONEER POLYCLINIC)",
    "ADDRESS": "26 JURONG WEST STREET 61 NATIONAL UNIVERSITY POLYCLINICS (PIONEER POLYCLINIC) SINGAPORE 648201",
    "POSTAL": "648201",
    "X": "13053.392814084",
    "Y": "35637.2880898025",
    "LATITUDE": "1.33856179501564",
    "LONGITUDE": "103.699014641414"
  },
  {
    "SEARCHVAL": "SERANGOON POLYCLINIC",
    "BLK_NO": "587",
    "ROAD_NAME": "UPPER SERANGOON ROAD",
    "BUILDING": "SERANGOON POLYCLINIC",
    "ADDRESS": "587 UPPER SERANGOON ROAD SERANGOON POLYCLINIC SINGAPORE 534564",
    "POSTAL": "534564",
    "X": "32544.9560525082",
    "Y": "37003.4979754202",
    "LATITUDE": "1.35092066841966",
    "LONGITUDE": "103.874157885592"
  },
  {
    "SEARCHVAL": "SINGHEALTH POLYCLINICS (BUKIT MERAH POLYCLINIC)",
    "BLK_NO": "163",
    "ROAD_NAME": "BUKIT MERAH CENTRAL",
    "BUILDING": "SINGHEALTH POLYCLINICS (BUKIT MERAH POLYCLINIC)",
    "ADDRESS": "163 BUKIT MERAH CENTRAL SINGHEALTH POLYCLINICS (BUKIT MERAH POLYCLINIC) SINGAPORE 150163",
    "POSTAL": "150163",
    "X": "26189.6109690769",
    "Y": "29570.9288207442",
    "LATITUDE": "1.28370343137554",
    "LONGITUDE": "103.817051522816"
  },
  {
    "SEARCHVAL": "SINGHEALTH POLYCLINICS (OUTRAM POLYCLINIC)",
    "BLK_NO": "3",
    "ROAD_NAME": "SECOND HOSPITAL AVENUE",
    "BUILDING": "SINGHEALTH POLYCLINICS (OUTRAM POLYCLINIC)",
    "ADDRESS": "3 SECOND HOSPITAL AVENUE SINGHEALTH POLYCLINICS (OUTRAM POLYCLINIC) SINGAPORE 168937",
    "POSTAL": "168937",
    "X": "28564.1302357884",
    "Y": "29092.0659514535",
    "LATITUDE": "1.27937281065482",
    "LONGITUDE": "103.838387502631"
  },
  {
    "SEARCHVAL": "SINGHEALTH POLYCLINICS (PUNGGOL POLYCLINIC)",
    "BLK_NO": "681",
    "ROAD_NAME": "PUNGGOL DRIVE",
    "BUILDING": "SINGHEALTH POLYCLINICS (PUNGGOL POLYCLINIC)",
    "ADDRESS": "681 PUNGGOL DRIVE SINGHEALTH POLYCLINICS (PUNGGOL POLYCLINIC) SINGAPORE 820681",
    "POSTAL": "820681",
    "X": "36889.2405744055",
    "Y": "42748.8397612479",
    "LATITUDE": "1.40287845827053",
    "LONGITUDE": "103.913195741417"
  },
  {
    "SEARCHVAL": "SINGHEALTH POLYCLINICS (TAMPINES NORTH POLYCLINIC)",
    "BLK_NO": "35",
    "ROAD_NAME": "TAMPINES STREET 61",
    "BUILDING": "SINGHEALTH POLYCLINICS (TAMPINES NORTH POLYCLINIC)",
    "ADDRESS": "35 TAMPINES STREET 61 SINGHEALTH POLYCLINICS (TAMPINES NORTH POLYCLINIC) SINGAPORE 528566",
    "POSTAL": "528566",
    "X": "39600.4353155419",
    "Y": "38373.7780876122",
    "LATITUDE": "1.36331106894948",
    "LONGITUDE": "103.937556313682"
  },
  {
    "SEARCHVAL": "YISHUN POLYCLINIC",
    "BLK_NO": "2",
    "ROAD_NAME": "YISHUN AVENUE 9",
    "BUILDING": "YISHUN POLYCLINIC",
    "ADDRESS": "2 YISHUN AVENUE 9 YISHUN POLYCLINIC SINGAPORE 768898",
    "POSTAL": "768898",
    "X": "28654.4027114147",
    "Y": "45796.7524427902",
    "LATITUDE": "1.43044404494507",
    "LONGITUDE": "103.839198998268"
  },
  {
    "SEARCHVAL": "BIDADARI POLYCLINIC AND ORANGE VALLEY NURSING HOME",
    "BLK_NO": "51",
    "ROAD_NAME": "ALKAFF CRESCENT",
    "BUILDING": "BIDADARI POLYCLINIC AND ORANGE VALLEY NURSING HOME",
    "ADDRESS": "51 ALKAFF CRESCENT BIDADARI POLYCLINIC AND ORANGE VALLEY NURSING HOME SINGAPORE 349994",
    "POSTAL": "349994",
    "X": "32649.8706955258",
    "Y": "35459.3458522037",
    "LATITUDE": "1.33695589269021",
    "LONGITUDE": "103.875100372666"
  },
  {
    "SEARCHVAL": "JURONG POLYCLINIC AND ECON CARE RESIDENCE (JURONG EAST)",
    "BLK_NO": "200",
    "ROAD_NAME": "JURONG EAST AVENUE 1",
    "BUILDING": "JURONG POLYCLINIC AND ECON CARE RESIDENCE (JURONG EAST)",
    "ADDRESS": "200 JURONG EAST AVENUE 1 JURONG POLYCLINIC AND ECON CARE RESIDENCE (JURONG EAST) SINGAPORE 609789",
    "POSTAL": "609789",
    "X": "16376.9333828874",
    "Y": "36971.4406998456",
    "LATITUDE": "1.35062884013196",
    "LONGITUDE": "103.728878030806"
  },
  {
    "SEARCHVAL": "KAKI BUKIT POLYCLINIC",
    "BLK_NO": "18",
    "ROAD_NAME": "JALAN DAMAI",
    "BUILDING": "KAKI BUKIT POLYCLINIC",
    "ADDRESS": "18 JALAN DAMAI KAKI BUKIT POLYCLINIC SINGAPORE 418000",
    "POSTAL": "418000",
    "X": "36532.7440805752",
    "Y": "35089.1988003962",
    "LATITUDE": "1.33360757028569",
    "LONGITUDE": "103.90999012933"
  },
  {
    "SEARCHVAL": "NATIONAL HEALTHCARE GROUP POLYCLINICS (YISHUN POLYCLINIC)",
    "BLK_NO": "2",
    "ROAD_NAME": "YISHUN AVENUE 9",
    "BUILDING": "NATIONAL HEALTHCARE GROUP POLYCLINICS (YISHUN POLYCLINIC)",
    "ADDRESS": "2 YISHUN AVENUE 9 NATIONAL HEALTHCARE GROUP POLYCLINICS (YISHUN POLYCLINIC) SINGAPORE 768898",
    "POSTAL": "768898",
    "X": "28653.479144427",
    "Y": "45787.2955139577",
    "LATITUDE": "1.43035851992416",
    "LONGITUDE": "103.839190698939"
  },
  {
    "SEARCHVAL": "PASIR RIS POLYCLINIC",
    "BLK_NO": "6",
    "ROAD_NAME": "PASIR RIS DRIVE 8",
    "BUILDING": "PASIR RIS POLYCLINIC",
    "ADDRESS": "6 PASIR RIS DRIVE 8 PASIR RIS POLYCLINIC SINGAPORE 519466",
    "POSTAL": "519466",
    "X": "40783.2230056431",
    "Y": "39500.800740676",
    "LATITUDE": "1.37350295229758",
    "LONGITUDE": "103.948184929877"
  },
  {
    "SEARCHVAL": "QUEENSTOWN POLYCLINIC",
    "BLK_NO": "580",
    "ROAD_NAME": "STIRLING ROAD",
    "BUILDING": "QUEENSTOWN POLYCLINIC",
    "ADDRESS": "580 STIRLING ROAD QUEENSTOWN POLYCLINIC SINGAPORE 148958",
    "POSTAL": "148958",
    "X": "24405.1997937365",
    "Y": "31204.0963296872",
    "LATITUDE": "1.2984730688522",
    "LONGITUDE": "103.801017702348"
  },
  {
    "SEARCHVAL": "SINGHEALTH POLYCLINICS (KAKI BUKIT POLYCLINIC)",
    "BLK_NO": "18",
    "ROAD_NAME": "JALAN DAMAI",
    "BUILDING": "SINGHEALTH POLYCLINICS (KAKI BUKIT POLYCLINIC)",
    "ADDRESS": "18 JALAN DAMAI SINGHEALTH POLYCLINICS (KAKI BUKIT POLYCLINIC) SINGAPORE 418000",
    "POSTAL": "418000",
    "X": "36528.8477738351",
    "Y": "35093.8571944311",
    "LATITUDE": "1.33364970020935",
    "LONGITUDE": "103.909955120126"
  },
  {
    "SEARCHVAL": "SINGHEALTH POLYCLINICS (SENGKANG POLYCLINIC)",
    "BLK_NO": "2",
    "ROAD_NAME": "SENGKANG SQUARE",
    "BUILDING": "SINGHEALTH POLYCLINICS (SENGKANG POLYCLINIC)",
    "ADDRESS": "2 SENGKANG SQUARE SINGHEALTH POLYCLINICS (SENGKANG POLYCLINIC) SINGAPORE 545025",
    "POSTAL": "545025",
    "X": "34789.5520876041",
    "Y": "41622.3805164322",
    "LATITUDE": "1.39269174282317",
    "LONGITUDE": "103.894328052934"
  },
  {
    "SEARCHVAL": "SINGHEALTH POLYCLINICS (TAMPINES POLYCLINIC)",
    "BLK_NO": "1",
    "ROAD_NAME": "TAMPINES STREET 41",
    "BUILDING": "SINGHEALTH POLYCLINICS (TAMPINES POLYCLINIC)",
    "ADDRESS": "1 TAMPINES STREET 41 SINGHEALTH POLYCLINICS (TAMPINES POLYCLINIC) SINGAPORE 529203",
    "POSTAL": "529203",
    "X": "40529.6311488347",
    "Y": "37709.2709290478",
    "LATITUDE": "1.35730113647076",
    "LONGITUDE": "103.945905475983"
  },
  {
    "SEARCHVAL": "TOA PAYOH POLYCLINIC",
    "BLK_NO": "2003",
    "ROAD_NAME": "LORONG 8 TOA PAYOH",
    "BUILDING": "TOA PAYOH POLYCLINIC",
    "ADDRESS": "2003 LORONG 8 TOA PAYOH TOA PAYOH POLYCLINIC SINGAPORE 319260",
    "POSTAL": "319260",
    "X": "30853.2250498263",
    "Y": "35185.5812922884",
    "LATITUDE": "1.33448028627853",
    "LONGITUDE": "103.858956441969"
  },
  {
    "SEARCHVAL": "NATIONAL HEALTHCARE GROUP POLYCLINICS (ANG MO KIO POLYCLINIC)",
    "BLK_NO": "21",
    "ROAD_NAME": "ANG MO KIO CENTRAL 2",
    "BUILDING": "NATIONAL HEALTHCARE GROUP POLYCLINICS (ANG MO KIO POLYCLINIC)",
    "ADDRESS": "21 ANG MO KIO CENTRAL 2 NATIONAL HEALTHCARE GROUP POLYCLINICS (ANG MO KIO POLYCLINIC) SINGAPORE 569666",
    "POSTAL": "569666",
    "X": "29367.700739814",
    "Y": "39589.9009675607",
    "LATITUDE": "1.3743114881768",
    "LONGITUDE": "103.845608355051"
  },
  {
    "SEARCHVAL": "NATIONAL HEALTHCARE GROUP POLYCLINICS (CLEMENTI POLYCLINIC)",
    "BLK_NO": "2",
    "ROAD_NAME": "CLEMENTI CLOSE",
    "BUILDING": "NATIONAL HEALTHCARE GROUP POLYCLINICS (CLEMENTI POLYCLINIC)",
    "ADDRESS": "2 CLEMENTI CLOSE NATIONAL HEALTHCARE GROUP POLYCLINICS (CLEMENTI POLYCLINIC) SINGAPORE 129634",
    "POSTAL": "129634",
    "X": "20230.5906269224",
    "Y": "33256.5054389536",
    "LATITUDE": "1.31703355684198",
    "LONGITUDE": "103.763506485103"
  },
  {
    "SEARCHVAL": "NATIONAL HEALTHCARE GROUP POLYCLINICS (SEMBAWANG POLYCLINIC)",
    "BLK_NO": "21",
    "ROAD_NAME": "CANBERRA LINK",
    "BUILDING": "NATIONAL HEALTHCARE GROUP POLYCLINICS (SEMBAWANG POLYCLINIC)",
    "ADDRESS": "21 CANBERRA LINK NATIONAL HEALTHCARE GROUP POLYCLINICS (SEMBAWANG POLYCLINIC) SINGAPORE 756973",
    "POSTAL": "756973",
    "X": "26817.9353258852",
    "Y": "47834.1423363928",
    "LATITUDE": "1.44886944289896",
    "LONGITUDE": "103.822696537456"
  },
  {
    "SEARCHVAL": "NATIONAL UNIVERSITY POLYCLINICS (BUKIT BATOK POLYCLINIC)",
    "BLK_NO": "50",
    "ROAD_NAME": "BUKIT BATOK WEST AVENUE 3",
    "BUILDING": "NATIONAL UNIVERSITY POLYCLINICS (BUKIT BATOK POLYCLINIC)",
    "ADDRESS": "50 BUKIT BATOK WEST AVENUE 3 NATIONAL UNIVERSITY POLYCLINICS (BUKIT BATOK POLYCLINIC) SINGAPORE 659164",
    "POSTAL": "659164",
    "X": "18494.558253088",
    "Y": "37127.4407680091",
    "LATITUDE": "1.35204039566826",
    "LONGITUDE": "103.747906154201"
  },
  {
    "SEARCHVAL": "NATIONAL UNIVERSITY POLYCLINICS (QUEENSTOWN POLYCLINIC)",
    "BLK_NO": "580",
    "ROAD_NAME": "STIRLING ROAD",
    "BUILDING": "NATIONAL UNIVERSITY POLYCLINICS (QUEENSTOWN POLYCLINIC)",
    "ADDRESS": "580 STIRLING ROAD NATIONAL UNIVERSITY POLYCLINICS (QUEENSTOWN POLYCLINIC) SINGAPORE 148958",
    "POSTAL": "148958",
    "X": "24398.532786035",
    "Y": "31204.3623549957",
    "LATITUDE": "1.29847547391978",
    "LONGITUDE": "103.800957796297"
  },
  {
    "SEARCHVAL": "NATIONAL UNIVERSITY POLYCLINICS (TAMAN JURONG POLYCLINIC)",
    "BLK_NO": "20",
    "ROAD_NAME": "YUNG KUANG ROAD",
    "BUILDING": "NATIONAL UNIVERSITY POLYCLINICS (TAMAN JURONG POLYCLINIC)",
    "ADDRESS": "20 YUNG KUANG ROAD NATIONAL UNIVERSITY POLYCLINICS (TAMAN JURONG POLYCLINIC) SINGAPORE 619657",
    "POSTAL": "619657",
    "X": "15725.6587511776",
    "Y": "34826.0794903543",
    "LATITUDE": "1.33122673088576",
    "LONGITUDE": "103.723026795095"
  },
  {
    "SEARCHVAL": "SINGHEALTH POLYCLINICS (PASIR RIS POLYCLINIC)",
    "BLK_NO": "6",
    "ROAD_NAME": "PASIR RIS DRIVE 8",
    "BUILDING": "SINGHEALTH POLYCLINICS (PASIR RIS POLYCLINIC)",
    "ADDRESS": "6 PASIR RIS DRIVE 8 SINGHEALTH POLYCLINICS (PASIR RIS POLYCLINIC) SINGAPORE 519466",
    "POSTAL": "519466",
    "X": "40783.4282528404",
    "Y": "39503.4425302949",
    "LATITUDE": "1.37352684356118",
    "LONGITUDE": "103.948186775307"
  },
  {
    "SEARCHVAL": "TAMAN JURONG POLYCLINIC",
    "BLK_NO": "20",
    "ROAD_NAME": "YUNG KUANG ROAD",
    "BUILDING": "TAMAN JURONG POLYCLINIC",
    "ADDRESS": "20 YUNG KUANG ROAD TAMAN JURONG POLYCLINIC SINGAPORE 619657",
    "POSTAL": "619657",
    "X": "15721.212626514",
    "Y": "34827.3061609305",
    "LATITUDE": "1.33123782264044",
    "LONGITUDE": "103.722986843748"
  },
  {
    "SEARCHVAL": "TAMPINES NORTH POLYCLINIC",
    "BLK_NO": "35",
    "ROAD_NAME": "TAMPINES STREET 61",
    "BUILDING": "TAMPINES NORTH POLYCLINIC",
    "ADDRESS": "35 TAMPINES STREET 61 TAMPINES NORTH POLYCLINIC SINGAPORE 528566",
    "POSTAL": "528566",
    "X": "39601.048847571",
    "Y": "38376.1710744053",
    "LATITUDE": "1.36333270999242",
    "LONGITUDE": "103.937561827605"
  },
  {
    "SEARCHVAL": "WOODLANDS POLYCLINIC ()ANNEX BLOCK)",
    "BLK_NO": "10A",
    "ROAD_NAME": "WOODLANDS STREET 31",
    "BUILDING": "WOODLANDS POLYCLINIC ()ANNEX BLOCK)",
    "ADDRESS": "10A WOODLANDS STREET 31 WOODLANDS POLYCLINIC ()ANNEX BLOCK) SINGAPORE 739312",
    "POSTAL": "739312",
    "X": "21481.6253559897",
    "Y": "45850.218263248",
    "LATITUDE": "1.43092682518551",
    "LONGITUDE": "103.77474488937"
  },
  {
    "SEARCHVAL": "CLEMENTI POLYCLINIC",
    "BLK_NO": "2",
    "ROAD_NAME": "CLEMENTI CLOSE",
    "BUILDING": "CLEMENTI POLYCLINIC",
    "ADDRESS": "2 CLEMENTI CLOSE CLEMENTI POLYCLINIC SINGAPORE 129634",
    "POSTAL": "129634",
    "X": "20227.7146236449",
    "Y": "33256.1406794824",
    "LATITUDE": "1.31703025735992",
    "LONGITUDE": "103.763480642855"
  },
  {
    "SEARCHVAL": "KHATIB POLYCLINIC",
    "BLK_NO": "690",
    "ROAD_NAME": "YISHUN RING ROAD",
    "BUILDING": "KHATIB POLYCLINIC",
    "ADDRESS": "690 YISHUN RING ROAD KHATIB POLYCLINIC SINGAPORE 769567",
    "POSTAL": "769567",
    "X": "28123.466863472",
    "Y": "44443.3115903921",
    "LATITUDE": "1.41820402220914",
    "LONGITUDE": "103.834428037791"
  },
  {
    "SEARCHVAL": "NATIONAL HEALTHCARE GROUP POLYCLINICS (BIDADARI POLYCLINIC)",
    "BLK_NO": "51",
    "ROAD_NAME": "ALKAFF CRESCENT",
    "BUILDING": "NATIONAL HEALTHCARE GROUP POLYCLINICS (BIDADARI POLYCLINIC)",
    "ADDRESS": "51 ALKAFF CRESCENT NATIONAL HEALTHCARE GROUP POLYCLINICS (BIDADARI POLYCLINIC) SINGAPORE 349994",
    "POSTAL": "349994",
    "X": "32648.7462399304",
    "Y": "35456.1708617844",
    "LATITUDE": "1.33692717938356",
    "LONGITUDE": "103.875090268295"
  },
  {
    "SEARCHVAL": "NATIONAL HEALTHCARE GROUP POLYCLINICS (GEYLANG POLYCLINIC)",
    "BLK_NO": "21",
    "ROAD_NAME": "GEYLANG EAST CENTRAL",
    "BUILDING": "NATIONAL HEALTHCARE GROUP POLYCLINICS (GEYLANG POLYCLINIC)",
    "ADDRESS": "21 GEYLANG EAST CENTRAL NATIONAL HEALTHCARE GROUP POLYCLINICS (GEYLANG POLYCLINIC) SINGAPORE 389707",
    "POSTAL": "389707",
    "X": "34000.2782116672",
    "Y": "33527.2274914142",
    "LATITUDE": "1.31948226814405",
    "LONGITUDE": "103.88723418813"
  },
  {
    "SEARCHVAL": "NATIONAL HEALTHCARE GROUP POLYCLINICS (HOUGANG POLYCLINIC)",
    "BLK_NO": "89",
    "ROAD_NAME": "HOUGANG AVENUE 4",
    "BUILDING": "NATIONAL HEALTHCARE GROUP POLYCLINICS (HOUGANG POLYCLINIC)",
    "ADDRESS": "89 HOUGANG AVENUE 4 NATIONAL HEALTHCARE GROUP POLYCLINICS (HOUGANG POLYCLINIC) SINGAPORE 538829",
    "POSTAL": "538829",
    "X": "34196.2661303552",
    "Y": "39115.2231313065",
    "LATITUDE": "1.37001805253858",
    "LONGITUDE": "103.888996385371"
  },
  {
    "SEARCHVAL": "PIONEER POLYCLINIC",
    "BLK_NO": "26",
    "ROAD_NAME": "JURONG WEST STREET 61",
    "BUILDING": "PIONEER POLYCLINIC",
    "ADDRESS": "26 JURONG WEST STREET 61 PIONEER POLYCLINIC SINGAPORE 648201",
    "POSTAL": "648201",
    "X": "13049.4635152416",
    "Y": "35637.338758409",
    "LATITUDE": "1.33856225129697",
    "LONGITUDE": "103.698979334424"
  },
  {
    "SEARCHVAL": "SINGHEALTH POLYCLINICS (BEDOK POLYCLINIC)",
    "BLK_NO": "11",
    "ROAD_NAME": "BEDOK NORTH STREET 1",
    "BUILDING": "SINGHEALTH POLYCLINICS (BEDOK POLYCLINIC)",
    "ADDRESS": "11 BEDOK NORTH STREET 1 SINGHEALTH POLYCLINICS (BEDOK POLYCLINIC) SINGAPORE 469662",
    "POSTAL": "469662",
    "X": "38985.5319643216",
    "Y": "34326.8298627753",
    "LATITUDE": "1.32671219591036",
    "LONGITUDE": "103.932029527683"
  },
  {
    "SEARCHVAL": "SINGHEALTH POLYCLINICS (EUNOS POLYCLINIC)",
    "BLK_NO": "1",
    "ROAD_NAME": "CHIN CHENG AVENUE",
    "BUILDING": "SINGHEALTH POLYCLINICS (EUNOS POLYCLINIC)",
    "ADDRESS": "1 CHIN CHENG AVENUE SINGHEALTH POLYCLINICS (EUNOS POLYCLINIC) SINGAPORE 429400",
    "POSTAL": "429400",
    "X": "36056.5363490842",
    "Y": "33289.0419777818",
    "LATITUDE": "1.31732773235246",
    "LONGITUDE": "103.905710662187"
  },
  {
    "SEARCHVAL": "SINGHEALTH POLYCLINICS (MARINE PARADE POLYCLINIC)",
    "BLK_NO": "80",
    "ROAD_NAME": "MARINE PARADE CENTRAL",
    "BUILDING": "SINGHEALTH POLYCLINICS (MARINE PARADE POLYCLINIC)",
    "ADDRESS": "80 MARINE PARADE CENTRAL SINGHEALTH POLYCLINICS (MARINE PARADE POLYCLINIC) SINGAPORE 440080",
    "POSTAL": "440080",
    "X": "36298.0154430959",
    "Y": "31619.1953024194",
    "LATITUDE": "1.3022261764354",
    "LONGITUDE": "103.907880027406"
  },
  {
    "SEARCHVAL": "SINGHEALTH POLYCLINICS (SERANGOON POLYCLINIC)",
    "BLK_NO": "587",
    "ROAD_NAME": "UPPER SERANGOON ROAD",
    "BUILDING": "SINGHEALTH POLYCLINICS (SERANGOON POLYCLINIC)",
    "ADDRESS": "587 UPPER SERANGOON ROAD SINGHEALTH POLYCLINICS (SERANGOON POLYCLINIC) SINGAPORE 534564",
    "POSTAL": "534564",
    "X": "32528.3170154272",
    "Y": "36990.8610316832",
    "LATITUDE": "1.35080638694762",
    "LONGITUDE": "103.874008371438"
  },
  {
    "SEARCHVAL": "NATIONAL HEALTHCARE GROUP POLYCLINICS (KHATIB POLYCLINIC)",
    "BLK_NO": "690",
    "ROAD_NAME": "YISHUN RING ROAD",
    "BUILDING": "NATIONAL HEALTHCARE GROUP POLYCLINICS (KHATIB POLYCLINIC)",
    "ADDRESS": "690 YISHUN RING ROAD NATIONAL HEALTHCARE GROUP POLYCLINICS (KHATIB POLYCLINIC) SINGAPORE 769567",
    "POSTAL": "769567",
    "X": "28114.3856208529",
    "Y": "44448.4832688943",
    "LATITUDE": "1.41825079304064",
    "LONGITUDE": "103.834346434792"
  },
  {
    "SEARCHVAL": "NATIONAL HEALTHCARE GROUP POLYCLINICS (TOA PAYOH POLYCLINIC)",
    "BLK_NO": "2003",
    "ROAD_NAME": "LORONG 8 TOA PAYOH",
    "BUILDING": "NATIONAL HEALTHCARE GROUP POLYCLINICS (TOA PAYOH POLYCLINIC)",
    "ADDRESS": "2003 LORONG 8 TOA PAYOH NATIONAL HEALTHCARE GROUP POLYCLINICS (TOA PAYOH POLYCLINIC) SINGAPORE 319260",
    "POSTAL": "319260",
    "X": "30856.8547561653",
    "Y": "35187.4623264037",
    "LATITUDE": "1.33449729734044",
    "LONGITUDE": "103.858989057136"
  },
  {
    "SEARCHVAL": "NATIONAL UNIVERSITY POLYCLINICS (CHOA CHU KANG POLYCLINIC)",
    "BLK_NO": "2",
    "ROAD_NAME": "TECK WHYE CRESCENT",
    "BUILDING": "NATIONAL UNIVERSITY POLYCLINICS (CHOA CHU KANG POLYCLINIC)",
    "ADDRESS": "2 TECK WHYE CRESCENT NATIONAL UNIVERSITY POLYCLINICS (CHOA CHU KANG POLYCLINIC) SINGAPORE 688846",
    "POSTAL": "688846",
    "X": "18818.3606632333",
    "Y": "40476.0745849628",
    "LATITUDE": "1.38232431432989",
    "LONGITUDE": "103.750814688256"
  },
  {
    "SEARCHVAL": "NATIONAL UNIVERSITY POLYCLINICS (CLEMENTI POLYCLINIC)",
    "BLK_NO": "451",
    "ROAD_NAME": "CLEMENTI AVENUE 3",
    "BUILDING": "NATIONAL UNIVERSITY POLYCLINICS (CLEMENTI POLYCLINIC)",
    "ADDRESS": "451 CLEMENTI AVENUE 3 NATIONAL UNIVERSITY POLYCLINICS (CLEMENTI POLYCLINIC) SINGAPORE 120451",
    "POSTAL": "120451",
    "X": "20491.020717415",
    "Y": "32782.1588857807",
    "LATITUDE": "1.31274380194655",
    "LONGITUDE": "103.76584669599"
  },
  {
    "SEARCHVAL": "NATIONAL UNIVERSITY POLYCLINICS (JURONG POLYCLINIC)",
    "BLK_NO": "190",
    "ROAD_NAME": "JURONG EAST AVENUE 1",
    "BUILDING": "NATIONAL UNIVERSITY POLYCLINICS (JURONG POLYCLINIC)",
    "ADDRESS": "190 JURONG EAST AVENUE 1 NATIONAL UNIVERSITY POLYCLINICS (JURONG POLYCLINIC) SINGAPORE 609788",
    "POSTAL": "609788",
    "X": "16587.1606626399",
    "Y": "36867.9012524001",
    "LATITUDE": "1.34969254866294",
    "LONGITUDE": "103.730767092044"
  },
  {
    "SEARCHVAL": "WOODLANDS POLYCLINIC",
    "BLK_NO": "10",
    "ROAD_NAME": "WOODLANDS STREET 31",
    "BUILDING": "WOODLANDS POLYCLINIC",
    "ADDRESS": "10 WOODLANDS STREET 31 WOODLANDS POLYCLINIC SINGAPORE 738579",
    "POSTAL": "738579",
    "X": "21535.2491753232",
    "Y": "45848.1714513861",
    "LATITUDE": "1.43090832690174",
    "LONGITUDE": "103.775226749809"
  }
]