[
  {
    "SEARCHVAL": "24 HOUR WALK-IN CLINIC ACCIDENT & EMERGENCY (RAFFLES HOSPITAL)",
    "BLK_NO": "585",
    "ROAD_NAME": "NORTH BRIDGE ROAD",
    "BUILDING": "24 HOUR WALK-IN CLINIC ACCIDENT & EMERGENCY (RAFFLES HOSPITAL)",
    "ADDRESS": "585 NORTH BRIDGE ROAD 24 HOUR WALK-IN CLINIC ACCIDENT & EMERGENCY (RAFFLES HOSPITAL) SINGAPORE 188770",
    "POSTAL": "188770",
    "X": "30662.6522853011",
    "Y": "31499.3461032882",
    "LATITUDE": "1.30114329771677",
    "LONGITUDE": "103.857243718624"
  },
  {
    "SEARCHVAL": "CHILDREN'S EMERGENCY (KK WOMEN'S AND CHILDREN'S HOSPITAL)",
    "BLK_NO": "100",
    "ROAD_NAME": "BUKIT TIMAH ROAD",
    "BUILDING": "CHILDREN'S EMERGENCY (KK WOMEN'S AND CHILDREN'S HOSPITAL)",
    "ADDRESS": "100 BUKIT TIMAH ROAD CHILDREN'S EMERGENCY (KK WOMEN'S AND CHILDREN'S HOSPITAL) SINGAPORE 229899",
    "POSTAL": "229899",
    "X": "29483.6695531644",
    "Y": "32528.2622606456",
    "LATITUDE": "1.31044853126535",
    "LONGITUDE": "103.846650072852"
  },
  {
    "SEARCHVAL": "MOUNT PLEASANT REFERRAL & EMERGENCY CLINIC",
    "BLK_NO": "232",
    "ROAD_NAME": "WHITLEY ROAD",
    "BUILDING": "MOUNT PLEASANT REFERRAL & EMERGENCY CLINIC",
    "ADDRESS": "232 WHITLEY ROAD MOUNT PLEASANT REFERRAL & EMERGENCY CLINIC SINGAPORE 297824",
    "POSTAL": "297824",
    "X": "27306.976833812",
    "Y": "34204.3831863534",
    "LATITUDE": "1.32560680448521",
    "LONGITUDE": "103.827091390632"
  },
  {
    "SEARCHVAL": "NATIONAL FIRE AND CIVIL EMERGENCY PREPAREDNESS COUNCIL",
    "BLK_NO": "62",
    "ROAD_NAME": "HILL STREET",
    "BUILDING": "NATIONAL FIRE AND CIVIL EMERGENCY PREPAREDNESS COUNCIL",
    "ADDRESS": "62 HILL STREET NATIONAL FIRE AND CIVIL EMERGENCY PREPAREDNESS COUNCIL SINGAPORE 179367",
    "POSTAL": "179367",
    "X": "29766.2315328158",
    "Y": "30509.5440808386",
    "LATITUDE": "1.29219194059921",
    "LONGITUDE": "103.849188915827"
  },
  {
    "SEARCHVAL": "SAKRA EMERGENCY RESPONSE BRIGADE BUILDING",
    "BLK_NO": "18",
    "ROAD_NAME": "SAKRA ROAD",
    "BUILDING": "SAKRA EMERGENCY RESPONSE BRIGADE BUILDING",
    "ADDRESS": "18 SAKRA ROAD SAKRA EMERGENCY RESPONSE BRIGADE BUILDING SINGAPORE 627872",
    "POSTAL": "627872",
    "X": "12939.1974927038",
    "Y": "26535.7463688646",
    "LATITUDE": "1.25625082804387",
    "LONGITUDE": "103.697992906145"
  }
]