[
  {
    "SEARCHVAL": "1ST SCDF DIVISION HQ / ALEXANDRA FIRE STATION / QUEENSTOWN NPC",
    "BLK_NO": "3",
    "ROAD_NAME": "QUEENSWAY",
    "BUILDING": "1ST SCDF DIVISION HQ / ALEXANDRA FIRE STATION / QUEENSTOWN NPC",
    "ADDRESS": "3 QUEENSWAY 1ST SCDF DIVISION HQ / ALEXANDRA FIRE STATION / QUEENSTOWN NPC SINGAPORE 149073",
    "POSTAL": "149073",
    "X": "24610.0142802279",
    "Y": "30088.399078358",
    "LATITUDE": "1.2883831195166",
    "LONGITUDE": "103.802858171683"
  },
  {
    "SEARCHVAL": "2ND SCDF DIVISION HQ / TAMPINES FIRE STATION",
    "BLK_NO": "1",
    "ROAD_NAME": "TAMPINES INDUSTRIAL AVENUE 3",
    "BUILDING": "2ND SCDF DIVISION HQ / TAMPINES FIRE STATION",
    "ADDRESS": "1 TAMPINES INDUSTRIAL AVENUE 3 2ND SCDF DIVISION HQ / TAMPINES FIRE STATION SINGAPORE 528777",
    "POSTAL": "528777",
    "X": "38690.0075995717",
    "Y": "37787.0088272579",
    "LATITUDE": "1.35800488676144",
    "LONGITUDE": "103.929375304828"
  },
  {
    "SEARCHVAL": "3RD SCDF DIVISION HQ / YISHUN FIRE STATION",
    "BLK_NO": "533",
    "ROAD_NAME": "YISHUN INDUSTRIAL PARK A",
    "BUILDING": "3RD SCDF DIVISION HQ / YISHUN FIRE STATION",
    "ADDRESS": "533 YISHUN INDUSTRIAL PARK A 3RD SCDF DIVISION HQ / YISHUN FIRE STATION SINGAPORE 768774",
    "POSTAL": "768774",
    "X": "28393.7715507057",
    "Y": "47313.4449366238",
    "LATITUDE": "1.44416046705727",
    "LONGITUDE": "103.836857004782"
  },
  {
    "SEARCHVAL": "ALEXANDRA FIRE STATION",
    "BLK_NO": "3",
    "ROAD_NAME": "QUEENSWAY",
    "BUILDING": "ALEXANDRA FIRE STATION",
    "ADDRESS": "3 QUEENSWAY ALEXANDRA FIRE STATION SINGAPORE 149073",
    "POSTAL": "149073",
    "X": "24606.8264864506",
    "Y": "30093.2046958636",
    "LATITUDE": "1.28842657948272",
    "LONGITUDE": "103.802829527538"
  },
  {
    "SEARCHVAL": "BISHAN FIRE STATION",
    "BLK_NO": "1",
    "ROAD_NAME": "MARYMOUNT LANE",
    "BUILDING": "BISHAN FIRE STATION",
    "ADDRESS": "1 MARYMOUNT LANE BISHAN FIRE STATION SINGAPORE 574029",
    "POSTAL": "574029",
    "X": "28583.2403813284",
    "Y": "36711.5505599137",
    "LATITUDE": "1.34828073927366",
    "LONGITUDE": "103.83855935769"
  },
  {
    "SEARCHVAL": "CENTRAL FIRE STATION",
    "BLK_NO": "62",
    "ROAD_NAME": "HILL STREET",
    "BUILDING": "CENTRAL FIRE STATION",
    "ADDRESS": "62 HILL STREET CENTRAL FIRE STATION SINGAPORE 179367",
    "POSTAL": "179367",
    "X": "29762.3531447221",
    "Y": "30493.3135101963",
    "LATITUDE": "1.29204515724614",
    "LONGITUDE": "103.849154065964"
  },
  {
    "SEARCHVAL": "CLEMENTI FIRE STATION",
    "BLK_NO": "",
    "ROAD_NAME": "COMMONWEALTH AVENUE WEST",
    "BUILDING": "CLEMENTI FIRE STATION",
    "ADDRESS": "COMMONWEALTH AVENUE WEST CLEMENTI FIRE STATION SINGAPORE 129577",
    "POSTAL": "129577",
    "X": "20025.8953054827",
    "Y": "33792.6985027194",
    "LATITUDE": "1.32188264107343",
    "LONGITUDE": "103.761667055736"
  },
  {
    "SEARCHVAL": "MARINA BAY FIRE STATION",
    "BLK_NO": "70",
    "ROAD_NAME": "MARINA VIEW",
    "BUILDING": "MARINA BAY FIRE STATION",
    "ADDRESS": "70 MARINA VIEW MARINA BAY FIRE STATION SINGAPORE 018962",
    "POSTAL": "018962",
    "X": "29755.7181000113",
    "Y": "28593.2750048973",
    "LATITUDE": "1.27486187654763",
    "LONGITUDE": "103.849094342097"
  },
  {
    "SEARCHVAL": "PAYA LEBAR FIRE STATION",
    "BLK_NO": "91",
    "ROAD_NAME": "UBI AVENUE 4",
    "BUILDING": "PAYA LEBAR FIRE STATION",
    "ADDRESS": "91 UBI AVENUE 4 PAYA LEBAR FIRE STATION SINGAPORE 408827",
    "POSTAL": "408827",
    "X": "34718.4393062079",
    "Y": "35150.7435694616",
    "LATITUDE": "1.3341646156386",
    "LONGITUDE": "103.893687591258"
  },
  {
    "SEARCHVAL": "WOODLANDS FIRE STATION",
    "BLK_NO": "1",
    "ROAD_NAME": "WOODLANDS INDUSTRIAL PARK D STREET 2",
    "BUILDING": "WOODLANDS FIRE STATION",
    "ADDRESS": "1 WOODLANDS INDUSTRIAL PARK D STREET 2 WOODLANDS FIRE STATION SINGAPORE 738782",
    "POSTAL": "738782",
    "X": "20103.5797201637",
    "Y": "45834.9005447291",
    "LATITUDE": "1.43078794552543",
    "LONGITUDE": "103.76236187132"
  },
  {
    "SEARCHVAL": "AIRPORT FIRE SUB-STATION 3",
    "BLK_NO": "",
    "ROAD_NAME": "AIRPORT CARGO ROAD",
    "BUILDING": "AIRPORT FIRE SUB-STATION 3",
    "ADDRESS": "AIRPORT CARGO ROAD AIRPORT FIRE SUB-STATION 3",
    "POSTAL": "NIL",
    "X": "45903.2618756015",
    "Y": "39100.585080361",
    "LATITUDE": "1.36988088877856",
    "LONGITUDE": "103.994191774835"
  },
  {
    "SEARCHVAL": "BANYAN FIRE STATION",
    "BLK_NO": "15",
    "ROAD_NAME": "BANYAN ROAD",
    "BUILDING": "BANYAN FIRE STATION",
    "ADDRESS": "15 BANYAN ROAD BANYAN FIRE STATION SINGAPORE 627642",
    "POSTAL": "627642",
    "X": "10275.0108976988",
    "Y": "26301.9548584297",
    "LATITUDE": "1.25413514928539",
    "LONGITUDE": "103.674054603193"
  },
  {
    "SEARCHVAL": "BUKIT BATOK FIRE STATION",
    "BLK_NO": "80",
    "ROAD_NAME": "BUKIT BATOK ROAD",
    "BUILDING": "BUKIT BATOK FIRE STATION",
    "ADDRESS": "80 BUKIT BATOK ROAD BUKIT BATOK FIRE STATION SINGAPORE 658072",
    "POSTAL": "658072",
    "X": "19045.6635957314",
    "Y": "39489.203895662",
    "LATITUDE": "1.37339948825664",
    "LONGITUDE": "103.752857473089"
  },
  {
    "SEARCHVAL": "CHANGI FIRE STATION",
    "BLK_NO": "491",
    "ROAD_NAME": "UPPER CHANGI ROAD",
    "BUILDING": "CHANGI FIRE STATION",
    "ADDRESS": "491 UPPER CHANGI ROAD CHANGI FIRE STATION SINGAPORE 486965",
    "POSTAL": "486965",
    "X": "41136.0301954737",
    "Y": "35230.0304922722",
    "LATITUDE": "1.33487955343366",
    "LONGITUDE": "103.951353280829"
  },
  {
    "SEARCHVAL": "JURONG FIRE STATION",
    "BLK_NO": "22",
    "ROAD_NAME": "JURONG WEST STREET 26",
    "BUILDING": "JURONG FIRE STATION",
    "ADDRESS": "22 JURONG WEST STREET 26 JURONG FIRE STATION SINGAPORE 648126",
    "POSTAL": "648126",
    "X": "13751.5866343211",
    "Y": "36667.4180235751",
    "LATITUDE": "1.34787823859638",
    "LONGITUDE": "103.705287822289"
  },
  {
    "SEARCHVAL": "KALLANG FIRE STATION",
    "BLK_NO": "2",
    "ROAD_NAME": "GUILLEMARD CLOSE",
    "BUILDING": "KALLANG FIRE STATION",
    "ADDRESS": "2 GUILLEMARD CLOSE KALLANG FIRE STATION SINGAPORE 397623",
    "POSTAL": "397623",
    "X": "33111.1777710449",
    "Y": "32408.4429965504",
    "LATITUDE": "1.30936454066679",
    "LONGITUDE": "103.879244977036"
  },
  {
    "SEARCHVAL": "PUNGGOL FIRE STATION",
    "BLK_NO": "151",
    "ROAD_NAME": "PUNGGOL CENTRAL",
    "BUILDING": "PUNGGOL FIRE STATION",
    "ADDRESS": "151 PUNGGOL CENTRAL PUNGGOL FIRE STATION SINGAPORE 828727",
    "POSTAL": "828727",
    "X": "36990.4011702063",
    "Y": "42176.9820836075",
    "LATITUDE": "1.39770675677076",
    "LONGITUDE": "103.91410457523"
  },
  {
    "SEARCHVAL": "TUAS FIRE STATION",
    "BLK_NO": "7",
    "ROAD_NAME": "TUAS ROAD",
    "BUILDING": "TUAS FIRE STATION",
    "ADDRESS": "7 TUAS ROAD TUAS FIRE STATION SINGAPORE 638483",
    "POSTAL": "638483",
    "X": "8858.03915168159",
    "Y": "33547.7665279284",
    "LATITUDE": "1.3196626182619",
    "LONGITUDE": "103.661318363679"
  },
  {
    "SEARCHVAL": "TUAS VIEW FIRE STATION",
    "BLK_NO": "130",
    "ROAD_NAME": "TUAS SOUTH AVENUE 3",
    "BUILDING": "TUAS VIEW FIRE STATION",
    "ADDRESS": "130 TUAS SOUTH AVENUE 3 TUAS VIEW FIRE STATION SINGAPORE 637367",
    "POSTAL": "637367",
    "X": "5095.88474654313",
    "Y": "30155.6500887834",
    "LATITUDE": "1.28898312781219",
    "LONGITUDE": "103.627516127173"
  },
  {
    "SEARCHVAL": "WEST COAST MARINE FIRE STATION",
    "BLK_NO": "60",
    "ROAD_NAME": "WEST COAST FERRY ROAD",
    "BUILDING": "WEST COAST MARINE FIRE STATION",
    "ADDRESS": "60 WEST COAST FERRY ROAD WEST COAST MARINE FIRE STATION SINGAPORE 126979",
    "POSTAL": "126979",
    "X": "20069.7217114335",
    "Y": "30544.5546641201",
    "LATITUDE": "1.29250760743036",
    "LONGITUDE": "103.762061687065"
  },
  {
    "SEARCHVAL": "4TH SCDF DIVISION HQ / BUKIT BATOK FIRE STATION",
    "BLK_NO": "80",
    "ROAD_NAME": "BUKIT BATOK ROAD",
    "BUILDING": "4TH SCDF DIVISION HQ / BUKIT BATOK FIRE STATION",
    "ADDRESS": "80 BUKIT BATOK ROAD 4TH SCDF DIVISION HQ / BUKIT BATOK FIRE STATION SINGAPORE 658072",
    "POSTAL": "658072",
    "X": "19050.2400240656",
    "Y": "39495.7287346441",
    "LATITUDE": "1.37345849790283",
    "LONGITUDE": "103.752898593565"
  },
  {
    "SEARCHVAL": "4TH SCDF DIVISION HQ / BUKIT BATOK FIRE STATION",
    "BLK_NO": "82",
    "ROAD_NAME": "BUKIT BATOK ROAD",
    "BUILDING": "4TH SCDF DIVISION HQ / BUKIT BATOK FIRE STATION",
    "ADDRESS": "82 BUKIT BATOK ROAD 4TH SCDF DIVISION HQ / BUKIT BATOK FIRE STATION SINGAPORE 658073",
    "POSTAL": "658073",
    "X": "19050.2399937976",
    "Y": "39495.7287043761",
    "LATITUDE": "1.37345849762909",
    "LONGITUDE": "103.752898593293"
  },
  {
    "SEARCHVAL": "AIRPORT FIRE STATION 1",
    "BLK_NO": "",
    "ROAD_NAME": "UPPER CHANGI ROAD NORTH",
    "BUILDING": "AIRPORT FIRE STATION 1",
    "ADDRESS": "UPPER CHANGI ROAD NORTH AIRPORT FIRE STATION 1",
    "POSTAL": "NIL",
    "X": "44685.4933859138",
    "Y": "39090.2196579967",
    "LATITUDE": "1.36978786195795",
    "LONGITUDE": "103.983249302574"
  },
  {
    "SEARCHVAL": "AIRPORT FIRE STATION 1",
    "BLK_NO": "2000",
    "ROAD_NAME": "UPPER CHANGI ROAD NORTH",
    "BUILDING": "AIRPORT FIRE STATION 1",
    "ADDRESS": "2000 UPPER CHANGI ROAD NORTH AIRPORT FIRE STATION 1 SINGAPORE 508899",
    "POSTAL": "508899",
    "X": "44687.8792294627",
    "Y": "39090.1641162466",
    "LATITUDE": "1.36978735831026",
    "LONGITUDE": "103.983270740951"
  },
  {
    "SEARCHVAL": "AIRPORT FIRE STATION 3",
    "BLK_NO": "241",
    "ROAD_NAME": "CHANGI EAST DRIVE",
    "BUILDING": "AIRPORT FIRE STATION 3",
    "ADDRESS": "241 CHANGI EAST DRIVE AIRPORT FIRE STATION 3 SINGAPORE 498726",
    "POSTAL": "498726",
    "X": "47857.9572465178",
    "Y": "36109.4993275292",
    "LATITUDE": "1.34282945517624",
    "LONGITUDE": "104.011754029778"
  },
  {
    "SEARCHVAL": "ANG MO KIO FIRE STATION",
    "BLK_NO": "2874",
    "ROAD_NAME": "ANG MO KIO AVENUE 9",
    "BUILDING": "ANG MO KIO FIRE STATION",
    "ADDRESS": "2874 ANG MO KIO AVENUE 9 ANG MO KIO FIRE STATION SINGAPORE 569783",
    "POSTAL": "569783",
    "X": "29369.8056964744",
    "Y": "40770.4391411114",
    "LATITUDE": "1.3849878525885",
    "LONGITUDE": "103.845627324406"
  },
  {
    "SEARCHVAL": "BRANI MARINE FIRE STATION",
    "BLK_NO": "19",
    "ROAD_NAME": "BRANI WAY",
    "BUILDING": "BRANI MARINE FIRE STATION",
    "ADDRESS": "19 BRANI WAY BRANI MARINE FIRE STATION SINGAPORE 098002",
    "POSTAL": "098002",
    "X": "28647.3553562295",
    "Y": "26600.451932665",
    "LATITUDE": "1.25683952333137",
    "LONGITUDE": "103.839135261605"
  },
  {
    "SEARCHVAL": "CENTRAL FIRE STATION/CIVIL DEFENCE HERITAGE GALLERY",
    "BLK_NO": "62",
    "ROAD_NAME": "HILL STREET",
    "BUILDING": "CENTRAL FIRE STATION/CIVIL DEFENCE HERITAGE GALLERY",
    "ADDRESS": "62 HILL STREET CENTRAL FIRE STATION/CIVIL DEFENCE HERITAGE GALLERY SINGAPORE 179367",
    "POSTAL": "179367",
    "X": "29724.768814249",
    "Y": "30496.29826634",
    "LATITUDE": "1.29207215242455",
    "LONGITUDE": "103.848816355067"
  },
  {
    "SEARCHVAL": "JURONG ISLAND FIRE STATION",
    "BLK_NO": "70",
    "ROAD_NAME": "JURONG ISLAND HIGHWAY",
    "BUILDING": "JURONG ISLAND FIRE STATION",
    "ADDRESS": "70 JURONG ISLAND HIGHWAY JURONG ISLAND FIRE STATION SINGAPORE 627880",
    "POSTAL": "627880",
    "X": "14076.3886143612",
    "Y": "28270.5760140978",
    "LATITUDE": "1.27194049599076",
    "LONGITUDE": "103.70821012979"
  },
  {
    "SEARCHVAL": "YISHUN FIRE STATION",
    "BLK_NO": "533",
    "ROAD_NAME": "YISHUN INDUSTRIAL PARK A",
    "BUILDING": "YISHUN FIRE STATION",
    "ADDRESS": "533 YISHUN INDUSTRIAL PARK A YISHUN FIRE STATION SINGAPORE 768774",
    "POSTAL": "768774",
    "X": "28402.370563807",
    "Y": "47312.7834298387",
    "LATITUDE": "1.44415448450812",
    "LONGITUDE": "103.836934275401"
  },
  {
    "SEARCHVAL": "SCDF 2ND CD DIVISION HQ/TAMPINES FIRE STATION",
    "BLK_NO": "1",
    "ROAD_NAME": "TAMPINES INDUSTRIAL AVENUE 3",
    "BUILDING": "SCDF 2ND CD DIVISION HQ/TAMPINES FIRE STATION",
    "ADDRESS": "1 TAMPINES INDUSTRIAL AVENUE 3 SCDF 2ND CD DIVISION HQ/TAMPINES FIRE STATION SINGAPORE 528777",
    "POSTAL": "528777",
    "X": "38646.0316697806",
    "Y": "37832.2101866379",
    "LATITUDE": "1.35841368694591",
    "LONGITUDE": "103.928980168713"
  },
  {
    "SEARCHVAL": "SENGKANG FIRE STATION",
    "BLK_NO": "50",
    "ROAD_NAME": "BUANGKOK DRIVE",
    "BUILDING": "SENGKANG FIRE STATION",
    "ADDRESS": "50 BUANGKOK DRIVE SENGKANG FIRE STATION SINGAPORE 545064",
    "POSTAL": "545064",
    "X": "34913.9324341659",
    "Y": "40251.6474135965",
    "LATITUDE": "1.38029530187169",
    "LONGITUDE": "103.895445384813"
  },
  {
    "SEARCHVAL": "SENTOSA FIRE STATION",
    "BLK_NO": "37",
    "ROAD_NAME": "ARTILLERY AVENUE",
    "BUILDING": "SENTOSA FIRE STATION",
    "ADDRESS": "37 ARTILLERY AVENUE SENTOSA FIRE STATION SINGAPORE 099957",
    "POSTAL": "099957",
    "X": "27353.7301840568",
    "Y": "25922.3555087913",
    "LATITUDE": "1.25070705571894",
    "LONGITUDE": "103.827511664788"
  },
  {
    "SEARCHVAL": "TAMPINES FIRE STATION",
    "BLK_NO": "1",
    "ROAD_NAME": "TAMPINES INDUSTRIAL AVENUE 3",
    "BUILDING": "TAMPINES FIRE STATION",
    "ADDRESS": "1 TAMPINES INDUSTRIAL AVENUE 3 TAMPINES FIRE STATION SINGAPORE 528777",
    "POSTAL": "528777",
    "X": "38698.7936385451",
    "Y": "37791.7888380494",
    "LATITUDE": "1.35804811225715",
    "LONGITUDE": "103.929454254781"
  },
  {
    "SEARCHVAL": "WEST SATELLITE FIRE STATION",
    "BLK_NO": "77",
    "ROAD_NAME": "AIRPORT CARGO ROAD",
    "BUILDING": "WEST SATELLITE FIRE STATION",
    "ADDRESS": "77 AIRPORT CARGO ROAD WEST SATELLITE FIRE STATION SINGAPORE 819481",
    "POSTAL": "819481",
    "X": "45626.4789318135",
    "Y": "39263.1039944459",
    "LATITUDE": "1.37135081284157",
    "LONGITUDE": "103.99170479155"
  }
]