[
  {
    "osm_id": 4004913148,
    "osm_type": "node",
    "lat": 1.3413012,
    "lon": 103.9483102,
    "tags": {
      "amenity": "hospital",
      "healthcare": "hospital",
      "name": "Integrated Building (CGH-SACH)",
      "operator": "Eastern Healthcare Alliance"
    },
    "source_query": "hospitals"
  },
  {
    "osm_id": 4800589700,
    "osm_type": "node",
    "lat": 1.3818667,
    "lon": 103.8845994,
    "tags": {
      "amenity": "hospital",
      "healthcare": "hospital",
      "name": "Institute of Mental Health",
      "name:zh": "\u5fc3\u7406\u536b\u751f\u5b66\u9662",
      "wheelchair": "yes"
    },
    "source_query": "hospitals"
  },
  {
    "osm_id": 5479259728,
    "osm_type": "node",
    "lat": 1.2891999,
    "lon": 103.8162752,
    "tags": {
      "amenity": "hospital",
      "healthcare": "hospital",
      "name": "Pacific Family Clinic"
    },
    "source_query": "hospitals"
  },
  {
    "osm_id": 5599594021,
    "osm_type": "node",
    "lat": 1.3010276,
    "lon": 103.7931057,
    "tags": {
      "amenity": "hospital",
      "healthcare": "hospital",
      "name": "Singapore Advanced Medicine Proton Therapy",
      "name:en": "Singapore Institute of Advanced Medicine - Proton Therapy Centre",
      "website": "http://www.proton.sg"
    },
    "source_query": "hospitals"
  },
  {
    "osm_id": 5599599523,
    "osm_type": "node",
    "lat": 1.2813333,
    "lon": 103.8380544,
    "tags": {
      "addr:housenumber": "20",
      "addr:street": "Outram Road",
      "amenity": "hospital",
      "healthcare": "hospital",
      "name": "National Cancer Centre Singapore Proton Therapy Centre",
      "name:zh": "\u65b0\u764c\u75c7\u4e2d\u5fc3\u8d28\u5b50\u6cbb\u7597\u4e2d\u5fc3",
      "website": "https://www.nccs.com.sg/"
    },
    "source_query": "hospitals"
  },
  {
    "osm_id": 5717278581,
    "osm_type": "node",
    "lat": 1.2869166,
    "lon": 103.8016072,
    "tags": {
      "amenity": "hospital",
      "healthcare": "hospital",
      "healthcare:speciality": "emergency",
      "level": "1",
      "name": "Urgent Care Centre",
      "name:zh": "\u6025\u8bca\u4e2d\u5fc3",
      "operator": "Alexandra Hospital"
    },
    "source_query": "hospitals"
  },
  {
    "osm_id": 6746490215,
    "osm_type": "node",
    "lat": 1.3126,
    "lon": 103.854,
    "tags": {
      "addr:city": "Singapore",
      "addr:country": "SG",
      "addr:housenumber": "1",
      "addr:postcode": "217562",
      "addr:street": "Farrer Park Station Road",
      "amenity": "hospital",
      "contact:email": "enquiries@farrerpark.com",
      "contact:facebook": "https://www.facebook.com/farrerparkhospital",
      "contact:fax": "+65 6705 2728",
      "contact:instagram": "https://www.instagram.com/farrerparkhospital/",
      "contact:website": "https://www.farrerpark.com/hospital/ContactUs/Pages/ContactUs.aspx",
      "healthcare": "hospital",
      "name": "Farrer Park Hospital",
      "name:ms": "Hospital Farrer Park",
      "name:zh": "\u82b1\u62c9\u516c\u56ed\u533b\u9662",
      "opening_hours": "24/7",
      "operator": "The Farrer Park Company",
      "operator:type": "private_for_profit",
      "phone": "+65 6363 1818",
      "website": "https://www.farrerpark.com/hospital/"
    },
    "source_query": "hospitals"
  },
  {
    "osm_id": 7143761653,
    "osm_type": "node",
    "lat": 1.3225665,
    "lon": 103.8136561,
    "tags": {
      "addr:city": "Singapore",
      "addr:postcode": "258748",
      "addr:street": "Serene Centre #02-03",
      "amenity": "hospital",
      "healthcare": "hospital",
      "healthcare:speciality": "dermatology",
      "name": "Priya Sen Skin & Laser Centre"
    },
    "source_query": "hospitals"
  },
  {
    "osm_id": 8894273783,
    "osm_type": "node",
    "lat": 1.3206085,
    "lon": 103.8484559,
    "tags": {
      "amenity": "hospital",
      "healthcare": "hospital",
      "name": "Blk 101, TTSH Foot and Limb Center",
      "name:en": "Blk 101, TTSH Foot and Limb Center",
      "wheelchair": "yes"
    },
    "source_query": "hospitals"
  },
  {
    "osm_id": 9152442812,
    "osm_type": "node",
    "lat": 1.2941992,
    "lon": 103.7830593,
    "tags": {
      "amenity": "hospital",
      "healthcare": "hospital",
      "name": "National University Hospital"
    },
    "source_query": "hospitals"
  },
  {
    "osm_id": 9723990867,
    "osm_type": "node",
    "lat": 1.3122814,
    "lon": 103.8546429,
    "tags": {
      "addr:city": "Singapore",
      "addr:country": "SG",
      "addr:housenumber": "12",
      "addr:postcode": "217565",
      "addr:street": "Farrer Park Station Road",
      "addr:unit": "#05-01",
      "amenity": "hospital",
      "email": "info@starmedspecialist.com",
      "mobile": "+65 96552101",
      "name": "StarMed Specialist Centre",
      "phone": "+65 63226333",
      "website": "https://starmedspecialist.com/"
    },
    "source_query": "hospitals"
  },
  {
    "osm_id": 10301741631,
    "osm_type": "node",
    "lat": 1.2870419,
    "lon": 103.801972,
    "tags": {
      "amenity": "hospital",
      "healthcare": "hospital",
      "name": "Nursing Training Centre"
    },
    "source_query": "hospitals"
  },
  {
    "osm_id": 10899296569,
    "osm_type": "node",
    "lat": 1.4376172,
    "lon": 103.7865619,
    "tags": {
      "amenity": "hospital",
      "healthcare": "hospital",
      "name": "Woodlands Joint Testing & Vaccination Centre",
      "name:ms": "Pusat Ujian & Vaksinasi Bersama Woodlands",
      "name:zh": "\u5140\u5170\u8054\u5408\u68c0\u6d4b\u4e0e\u75ab\u82d7\u63a5\u79cd\u4e2d\u5fc3"
    },
    "source_query": "hospitals"
  },
  {
    "osm_id": 11462165516,
    "osm_type": "node",
    "lat": 1.3224903,
    "lon": 103.8450626,
    "tags": {
      "amenity": "hospital",
      "healthcare": "hospital",
      "healthcare:speciality": "radiotherapy",
      "man_made": "particle_accelerator",
      "name": "Mount Elizabeth Proton Therapy Centre",
      "operator": "Mount Elizabeth",
      "particle_accelerator": "circular",
      "substance": "proton"
    },
    "source_query": "hospitals"
  },
  {
    "osm_id": 13199896801,
    "osm_type": "node",
    "lat": 1.3071589,
    "lon": 103.8202554,
    "tags": {
      "addr:housenumber": "6",
      "addr:postcode": "258499",
      "addr:street": "Napier Road",
      "amenity": "hospital",
      "level": "8",
      "name": "Gleneagles Medical Centre"
    },
    "source_query": "hospitals"
  },
  {
    "osm_id": 13245292326,
    "osm_type": "node",
    "lat": 1.3063204,
    "lon": 103.820416,
    "tags": {
      "addr:city": "Singapore",
      "addr:housenumber": "6",
      "addr:postcode": "258499",
      "addr:street": "Napier Road",
      "amenity": "hospital",
      "contact:facebook": "https://www.linkedin.com/in/chi-chiu-tan-new-life-coach-doctor/",
      "description": "Life coaching In Singapore",
      "email": "tancc@gastromed.com.sg",
      "healthcare": "hospital",
      "healthcare:speciality": "coach",
      "name": "New Life Coach Doctor",
      "opening_hours": "Monday to Friday (9:00AM - 17:00PM)",
      "phone": "+65 6471 2212",
      "website": "https://newlifecoachdr.com/"
    },
    "source_query": "hospitals"
  },
  {
    "osm_id": 33570275,
    "osm_type": "way",
    "lat": 1.3952091,
    "lon": 103.8925269,
    "tags": {
      "addr:city": "Singapore",
      "addr:housenumber": "110",
      "addr:postcode": "544886",
      "addr:street": "Sengkang East Way",
      "amenity": "hospital",
      "healthcare": "hospital",
      "name": "Sengkang General & Community Hospital",
      "name:ms": "Hospital Masyarakat Sengkang",
      "operator": "SingHealth",
      "website": "https://www.skh.com.sg/",
      "wikidata": "Q19646383",
      "wikimedia_commons": "Category:Sengkang General Hospital",
      "wikipedia": "en:Sengkang General Hospital"
    },
    "source_query": "hospitals"
  },
  {
    "osm_id": 34403524,
    "osm_type": "way",
    "lat": 1.3403638,
    "lon": 103.9491054,
    "tags": {
      "addr:street": "Simei Street 3",
      "amenity": "hospital",
      "healthcare": "hospital",
      "name": "Changi General Hospital",
      "name:ms": "Hospital Besar Changi",
      "wheelchair": "yes",
      "wikidata": "Q5071993",
      "wikimedia_commons": "Category:Changi General Hospital",
      "wikipedia": "en:Changi General Hospital"
    },
    "source_query": "hospitals"
  },
  {
    "osm_id": 34587438,
    "osm_type": "way",
    "lat": 1.3819475,
    "lon": 103.8860997,
    "tags": {
      "amenity": "hospital",
      "building": "yes",
      "healthcare": "hospital",
      "name": "Ren Ci Hospital",
      "name:ms": "Hospital Ren Ci",
      "name:zh": "\u4ec1\u6148\u533b\u9662"
    },
    "source_query": "hospitals"
  },
  {
    "osm_id": 37410453,
    "osm_type": "way",
    "lat": 1.3840243,
    "lon": 103.8402375,
    "tags": {
      "alt_name": "Thye Hua Kwan Hospital",
      "amenity": "hospital",
      "healthcare": "hospital",
      "name": "Ang Mo Kio Community Hospital",
      "name:ms": "Hospital Masyarakat Ang Mo Kio",
      "name:zh": "\u5b8f\u8302\u6865\u793e\u533a\u533b\u9662"
    },
    "source_query": "hospitals"
  },
  {
    "osm_id": 41663272,
    "osm_type": "way",
    "lat": 1.3105457,
    "lon": 103.8467818,
    "tags": {
      "alt_name": "KK Hospital",
      "amenity": "hospital",
      "building": "yes",
      "building:levels": "2",
      "building:part": "yes",
      "emergency": "yes",
      "full_name": "Kandang Kerbau Women's and Children's Hospital",
      "healthcare": "hospital",
      "name": "KK Women's and Children's Hospital",
      "name:ms": "Hospital Wanita dan Kanak-kanak KK",
      "name:zh": "\u7af9\u811a\u5987\u5e7c\u533b\u9662",
      "wikidata": "Q6332329",
      "wikipedia": "en:KK Women's and Children's Hospital"
    },
    "source_query": "hospitals"
  },
  {
    "osm_id": 41890511,
    "osm_type": "way",
    "lat": 1.3073675,
    "lon": 103.8198296,
    "tags": {
      "addr:city": "Singapore",
      "addr:housenumber": "6",
      "addr:street": "Napier Road",
      "amenity": "hospital",
      "contact:facebook": "https://www.facebook.com/GleneaglesHospitalSingapore",
      "contact:whatsapp": "+65 8111 9777",
      "emergency": "yes",
      "healthcare": "hospital",
      "name": "Gleneagles Hospital",
      "name:ms": "Hospital Gleneagles",
      "name:zh": "\u9e70\u9601\u533b\u9662",
      "phone": "+65 6575 7575",
      "start_date": "1957",
      "website": "https://www.gleneagles.com.sg/",
      "wikidata": "Q14874254",
      "wikimedia_commons": "Category:Gleneagles Hospital and Medical Centre",
      "wikipedia": "en:Gleneagles Hospital"
    },
    "source_query": "hospitals"
  },
  {
    "osm_id": 47134077,
    "osm_type": "way",
    "lat": 1.3011633,
    "lon": 103.857147,
    "tags": {
      "addr:city": "Singapore",
      "addr:country": "SG",
      "addr:housenumber": "585",
      "addr:postcode": "188770",
      "addr:street": "North Bridge Road",
      "amenity": "hospital",
      "building": "hospital",
      "healthcare": "hospital",
      "height": "0",
      "internet_access": "wlan",
      "name": "Raffles Hospital",
      "name:ms": "Hospital Raffles",
      "name:zh": "\u83b1\u4f5b\u58eb\u533b\u9662",
      "opening_hours": "24/7",
      "start_date": "2001",
      "wheelchair": "yes",
      "wikidata": "Q7282578",
      "wikimedia_commons": "Category:Raffles_Hospital",
      "wikipedia": "en:Raffles Hospital"
    },
    "source_query": "hospitals"
  },
  {
    "osm_id": 74715098,
    "osm_type": "way",
    "lat": 1.342202,
    "lon": 103.8379314,
    "tags": {
      "addr:housenumber": "820",
      "addr:postcode": "574623",
      "addr:street": "Thomson Road",
      "amenity": "hospital",
      "emergency": "yes",
      "healthcare": "hospital",
      "name": "Mount Alvernia Hospital",
      "name:ms": "Hospital Mount Alvernia",
      "name:zh": "\u5b89\u5fae\u5c3c\u4e9a\u5c71\u533b\u9662",
      "website": "https://mtalvernia.sg/",
      "wikidata": "Q6919390",
      "wikipedia": "en:Mount Alvernia Hospital"
    },
    "source_query": "hospitals"
  },
  {
    "osm_id": 75468299,
    "osm_type": "way",
    "lat": 1.2794979,
    "lon": 103.8347388,
    "tags": {
      "amenity": "hospital",
      "healthcare": "hospital",
      "name": "Singapore General Hospital",
      "name:en": "Singapore General Hospital",
      "name:ms": "Hospital Besar Singapore",
      "name:ta": "\u0b9a\u0bbf\u0b99\u0bcd\u0b95\u0baa\u0bcd\u0baa\u0bc2\u0bb0\u0bcd \u0ba4\u0bc7\u0b9a\u0bbf\u0baf \u0bae\u0bb0\u0bc1\u0ba4\u0bcd\u0ba4\u0bc1\u0bb5\u0bae\u0ba9\u0bc8",
      "name:th": "\u0e23\u0e07\u0e1e\u0e22\u0e32\u0e1a\u0e32\u0e25\u0e2a\u0e34\u0e07\u0e04\u0e42\u0e1b\u0e23\u0e4c",
      "name:zh": "\u65b0\u52a0\u5761\u4e2d\u592e\u533b\u9662",
      "short_name": "SGH",
      "url": "http://www.sgh.com.sg/",
      "wikidata": "Q7522983",
      "wikimedia_commons": "Category:Singapore General Hospital",
      "wikipedia": "en:Singapore General Hospital"
    },
    "source_query": "hospitals"
  },
  {
    "osm_id": 96696099,
    "osm_type": "way",
    "lat": 1.3407464,
    "lon": 103.7045823,
    "tags": {
      "amenity": "hospital",
      "building": "yes",
      "healthcare": "hospital",
      "layer": "1",
      "name": "Jurong Medical Centre",
      "name:en": "Jurong Medical Centre",
      "name:zh": "\u88d5\u5eca\u533b\u7597\u4e2d\u5fc3"
    },
    "source_query": "hospitals"
  },
  {
    "osm_id": 107830083,
    "osm_type": "way",
    "lat": 1.3525818,
    "lon": 103.7268897,
    "tags": {
      "addr:city": "Singapore",
      "addr:country": "SG",
      "addr:housenumber": "931",
      "addr:postcode": "649370",
      "addr:street": "Jurong West Street 42",
      "amenity": "hospital",
      "healthcare": "hospital",
      "name": "Jurong West Joint Testing & Vaccination Centre",
      "name:ms": "Pusat Ujian & Vaksinasi Bersama Jurong West",
      "name:zh": "\u88d5\u5eca\u897f\u8054\u5408\u68c0\u6d4b\u4e0e\u75ab\u82d7\u63a5\u79cd\u4e2d\u5fc3"
    },
    "source_query": "hospitals"
  },
  {
    "osm_id": 108841365,
    "osm_type": "way",
    "lat": 1.3404883,
    "lon": 103.7395646,
    "tags": {
      "addr:city": "Singapore",
      "addr:country": "SG",
      "addr:housenumber": "450",
      "addr:postcode": "609604",
      "addr:street": "Jurong East Street 21",
      "amenity": "hospital",
      "healthcare": "hospital",
      "name": "Jurong East Joint Testing & Vaccination Centre",
      "name:ms": "Pusat Ujian & Vaksinasi Bersama Jurong East",
      "name:zh": "\u88d5\u5eca\u4e1c\u8054\u5408\u68c0\u6d4b\u4e0e\u75ab\u82d7\u63a5\u79cd\u4e2d\u5fc3"
    },
    "source_query": "hospitals"
  },
  {
    "osm_id": 109100976,
    "osm_type": "way",
    "lat": 1.2864822,
    "lon": 103.7995836,
    "tags": {
      "amenity": "hospital",
      "building": "yes",
      "description": "This used to be the Married Quarters of the British Military Hospital.",
      "healthcare": "hospital",
      "name": "Block 22 - Mortuary"
    },
    "source_query": "hospitals"
  },
  {
    "osm_id": 109104578,
    "osm_type": "way",
    "lat": 1.2868961,
    "lon": 103.8011777,
    "tags": {
      "amenity": "hospital",
      "healthcare": "hospital",
      "name": "Alexandra Hospital",
      "name:ms": "Hospital Alexandra",
      "name:zh": "\u4e9a\u5386\u5c71\u5927\u533b\u9662",
      "wikidata": "Q4720666",
      "wikipedia": "en:Alexandra Hospital"
    },
    "source_query": "hospitals"
  },
  {
    "osm_id": 117178559,
    "osm_type": "way",
    "lat": 1.4237475,
    "lon": 103.8372373,
    "tags": {
      "amenity": "hospital",
      "emergency": "yes",
      "healthcare": "hospital",
      "name": "Yishun Community Hospital",
      "name:ms": "Hospital Masyarakat Yishun",
      "name:zh": "\u4e49\u987a\u793e\u533a\u533b\u9662",
      "wheelchair": "yes",
      "wikidata": "Q65052043",
      "wikipedia": "en:Yishun Community Hospital"
    },
    "source_query": "hospitals"
  },
  {
    "osm_id": 117325081,
    "osm_type": "way",
    "lat": 1.3720577,
    "lon": 103.8780282,
    "tags": {
      "addr:city": "Singapore",
      "addr:housenumber": "5",
      "addr:postcode": "547530",
      "addr:street": "Lor Napiri",
      "amenity": "hospital",
      "email": "enquiries@bvh.org.sg",
      "fax": "+65 6881 3872",
      "healthcare": "hospital",
      "name": "Bright Vision Hospital",
      "name:ms": "Hospital Bright Vision",
      "phone": "+65 6248 5755",
      "website": "http://www.bvh.org.sg/",
      "wikidata": "Q4967491",
      "wikipedia": "en:Bright Vision Hospital"
    },
    "source_query": "hospitals"
  },
  {
    "osm_id": 162644392,
    "osm_type": "way",
    "lat": 1.3494673,
    "lon": 103.7421088,
    "tags": {
      "addr:city": "Singapore",
      "addr:country": "SG",
      "addr:housenumber": "2",
      "addr:postcode": "659674",
      "addr:street": "Bukit Batok Street 11",
      "amenity": "hospital",
      "email": "general@stluke.org.sg",
      "fax": "+65 65618205",
      "name": "St Luke\u2019s Hospital",
      "name:ms": "Hospital St Luke",
      "phone": "+65 65632281",
      "source": "https://www.slh.org.sg/",
      "website": "https://www.slh.org.sg/",
      "wheelchair": "yes",
      "wikidata": "Q7594065",
      "wikipedia": "en:St Luke's Hospital, Singapore"
    },
    "source_query": "hospitals"
  },
  {
    "osm_id": 170744577,
    "osm_type": "way",
    "lat": 1.3416535,
    "lon": 103.9488264,
    "tags": {
      "addr:street": "Simei Street 3",
      "amenity": "hospital",
      "emergency": "no",
      "healthcare": "hospital",
      "name": "Saint Andrew's Community Hospital",
      "name:ms": "Hospital Masyarakat Saint Andrew's",
      "operator": "St. Andrew's Mission Hospital",
      "website": "https://www.sach.org.sg/"
    },
    "source_query": "hospitals"
  },
  {
    "osm_id": 172520759,
    "osm_type": "way",
    "lat": 1.3051746,
    "lon": 103.8353239,
    "tags": {
      "building": "yes",
      "building:levels": "5",
      "healthcare": "hospital"
    },
    "source_query": "hospitals"
  },
  {
    "osm_id": 172530221,
    "osm_type": "way",
    "lat": 1.3228173,
    "lon": 103.8459864,
    "tags": {
      "addr:city": "Singapore",
      "addr:country": "SG",
      "addr:housenumber": "71",
      "addr:postcode": "329562",
      "addr:street": "Irrawaddy Road",
      "amenity": "hospital",
      "building": "yes",
      "check_date": "2024-04-17",
      "email": "renci@renci.org.sg",
      "fax": "+65 63580900",
      "height": "0",
      "name": "Ren Ci Community Hospital",
      "name:ms": "Hospital Masyarakat Ren Ci",
      "name:zh": "\u4ec1\u6148\u793e\u533a\u533b\u9662",
      "opening_hours": "Mo-Fr 08:30-17:30;Sa 08:00-13:00",
      "phone": "+65 63850288",
      "website": "https://www.renci.org.sg/",
      "wikidata": "Q17053224",
      "wikipedia": "en:Ren Ci Hospital"
    },
    "source_query": "hospitals"
  },
  {
    "osm_id": 238933465,
    "osm_type": "way",
    "lat": 1.2943464,
    "lon": 103.7831409,
    "tags": {
      "amenity": "hospital",
      "healthcare": "hospital",
      "healthcare:speciality": "general",
      "name": "National University Hospital",
      "name:en": "National University Hospital",
      "name:ms": "Hospital Universiti Nasional Singapura",
      "name:ta": "\u0ba4\u0bc7\u0b9a\u0bbf\u0baf \u0baa\u0bb2\u0bcd\u0b95\u0bb2\u0bc8\u0b95\u0bcd\u0b95\u0bb4\u0b95 \u0bae\u0bb0\u0bc1\u0ba4\u0bcd\u0ba4\u0bc1\u0bb5\u0bae\u0ba9\u0bc8\u0baf\u0bbf\u0bb2\u0bcd",
      "name:zh": "\u56fd\u7acb\u5927\u5b66\u533b\u9662",
      "start_date": "1985",
      "url": "http://www.nuh.com.sg/",
      "wikidata": "Q6979219",
      "wikimedia_commons": "Category:National University Hospital",
      "wikipedia": "en:National University Hospital"
    },
    "source_query": "hospitals"
  },
  {
    "osm_id": 260472491,
    "osm_type": "way",
    "lat": 1.3212804,
    "lon": 103.8510187,
    "tags": {
      "amenity": "hospital",
      "emergency": "no",
      "healthcare": "hospital",
      "name": "Communicable Disease Centre",
      "wheelchair": "yes",
      "wikidata": "Q5154059",
      "wikipedia": "en:Communicable Disease Centre"
    },
    "source_query": "hospitals"
  },
  {
    "osm_id": 260549167,
    "osm_type": "way",
    "lat": 1.3220014,
    "lon": 103.8445055,
    "tags": {
      "addr:housenumber": "38",
      "addr:street": "Irrawaddy Road",
      "amenity": "hospital",
      "check_date": "2024-12-27",
      "email": "mnpac@parkwaypantai.com",
      "healthcare": "hospital",
      "name": "Mount Elizabeth Novena Hospital",
      "name:ms": "Hospital Mount Elizabeth Novena",
      "name:zh": "\u4f0a\u4e3d\u838e\u767d\u533b\u8bfa\u7ef4\u5a1c\u9662",
      "operator": "Parkway Health",
      "phone": "+65 69330000",
      "website": "https://www.mountelizabeth.com.sg/",
      "wikidata": "Q7138809",
      "wikipedia": "en:Mount Elizabeth Novena Hospital"
    },
    "source_query": "hospitals"
  },
  {
    "osm_id": 292420394,
    "osm_type": "way",
    "lat": 1.3749701,
    "lon": 103.8573449,
    "tags": {
      "addr:city": "Singapore",
      "addr:country": "SG",
      "addr:housenumber": "4300",
      "addr:postcode": "569869",
      "addr:street": "Ang Mo Kio Avenue 5",
      "amenity": "hospital",
      "healthcare": "hospital",
      "name": "Ang Mo Kio Joint Testing & Vaccination Centre",
      "name:ms": "Pusat Ujian dan Vaksinasi Bersama Ang Mo Kio",
      "name:zh": "\u5b8f\u8302\u6865\u8054\u5408\u68c0\u6d4b\u4e0e\u75ab\u82d7\u63a5\u79cd\u4e2d\u5fc3",
      "source": "Kaart Ground Survey 2017"
    },
    "source_query": "hospitals"
  },
  {
    "osm_id": 319962500,
    "osm_type": "way",
    "lat": 1.30467,
    "lon": 103.8352479,
    "tags": {
      "amenity": "hospital",
      "building:levels": "10",
      "building:min_levels": "5",
      "building:part": "yes",
      "healthcare": "hospital",
      "name": "Elizabeth Hospital Wards",
      "name:zh": "\u4f0a\u4e3d\u838e\u767d\u533b\u9662\u75c5\u623f"
    },
    "source_query": "hospitals"
  },
  {
    "osm_id": 320763066,
    "osm_type": "way",
    "lat": 1.3346266,
    "lon": 103.7442056,
    "tags": {
      "addr:city": "Singapore",
      "addr:country": "SG",
      "addr:housenumber": "1",
      "addr:postcode": "609606",
      "addr:street": "Jurong East Street 21",
      "alt_name": "Ng Teng Fong General Hospital Tower A",
      "amenity": "hospital",
      "building": "hospital",
      "height": "0",
      "name": "Jurong Health Specialist Outpatient Clinics"
    },
    "source_query": "hospitals"
  },
  {
    "osm_id": 320764872,
    "osm_type": "way",
    "lat": 1.3406555,
    "lon": 103.9494359,
    "tags": {
      "amenity": "hospital",
      "building": "yes",
      "building:levels": "4",
      "healthcare": "hospital"
    },
    "source_query": "hospitals"
  },
  {
    "osm_id": 368005259,
    "osm_type": "way",
    "lat": 1.3327304,
    "lon": 103.7465675,
    "tags": {
      "addr:city": "Singapore",
      "addr:country": "SG",
      "addr:housenumber": "1",
      "addr:postcode": "609606",
      "addr:street": "Jurong East Street 21",
      "alt_name": "Ng Teng Fong General Hospital Tower C",
      "amenity": "hospital",
      "building": "hospital",
      "healthcare": "hospital",
      "height": "0",
      "name": "Jurong Community Hospital",
      "name:ms": "Hospital Masyarakat Jurong",
      "name:zh": "\u88d5\u5eca\u793e\u533a\u533b\u9662",
      "wikidata": "Q23926492",
      "wikipedia": "en:Jurong Community Hospital"
    },
    "source_query": "hospitals"
  },
  {
    "osm_id": 368005260,
    "osm_type": "way",
    "lat": 1.334218,
    "lon": 103.745174,
    "tags": {
      "addr:city": "Singapore",
      "addr:country": "SG",
      "addr:housenumber": "1",
      "addr:postcode": "609606",
      "addr:street": "Jurong East Street 21",
      "amenity": "hospital",
      "healthcare": "hospital",
      "name": "Jurong Health Services"
    },
    "source_query": "hospitals"
  },
  {
    "osm_id": 368005263,
    "osm_type": "way",
    "lat": 1.3333962,
    "lon": 103.745529,
    "tags": {
      "addr:city": "Singapore",
      "addr:country": "SG",
      "addr:housenumber": "1",
      "addr:postcode": "609606",
      "addr:street": "Jurong East Street 21",
      "alt_name": "Ng Teng Fong General Hospital Tower B",
      "amenity": "hospital",
      "building": "yes",
      "building:colour": "#543d45",
      "building:levels": "4",
      "building:material": "metal",
      "emergency": "yes",
      "healthcare": "hospital",
      "name": "Ng Teng Fong General Hospital",
      "name:ms": "Hospital Besar Ng Teng Fong",
      "name:zh": "\u9ec4\u5ef7\u65b9\u7efc\u5408\u533b\u96620",
      "operator": "Jurong Health",
      "wikidata": "Q18639988",
      "wikipedia": "en:Ng Teng Fong General Hospital"
    },
    "source_query": "hospitals"
  },
  {
    "osm_id": 397219610,
    "osm_type": "way",
    "lat": 1.3151223,
    "lon": 103.9089808,
    "tags": {
      "amenity": "hospital",
      "healthcare": "hospital",
      "name": "Parkway East Hospital",
      "name:ms": "Hospital Parkway East",
      "name:zh": "\u767e\u6c47\u4e1c\u5cb8\u533b\u9662",
      "opening_hours": "24/7",
      "wheelchair": "yes",
      "wikidata": "Q7138794",
      "wikipedia": "en:Parkway East Hospital"
    },
    "source_query": "hospitals"
  },
  {
    "osm_id": 454254134,
    "osm_type": "way",
    "lat": 1.3149667,
    "lon": 103.8829355,
    "tags": {
      "addr:city": "Singapore",
      "addr:housenumber": "260",
      "addr:street": "Sims Avenue",
      "amenity": "hospital",
      "building": "yes",
      "healthcare": "hospital",
      "name": "ECM Building",
      "source": "Kaart Ground Survey 2017"
    },
    "source_query": "hospitals"
  },
  {
    "osm_id": 464928931,
    "osm_type": "way",
    "lat": 1.3174073,
    "lon": 103.8590435,
    "tags": {
      "addr:city": "Singapore",
      "addr:housenumber": "705",
      "addr:postcode": "328127",
      "addr:street": "Serangoon Road",
      "amenity": "hospital",
      "healthcare": "hospital",
      "name": "Kwong Wai Shiu Hospital",
      "name:ms": "Hospital Kwong Wai Shiu",
      "name:zh": "\u5e7f\u60e0\u8087\u533b\u9662",
      "wikidata": "Q6450553"
    },
    "source_query": "hospitals"
  },
  {
    "osm_id": 480737108,
    "osm_type": "way",
    "lat": 1.2889703,
    "lon": 103.8252552,
    "tags": {
      "addr:city": "Singapore",
      "addr:housenumber": "8",
      "addr:street": "Lower Delta Road",
      "amenity": "hospital",
      "healthcare": "hospital",
      "name": "Bukit Merah Joint Testing & Vaccination Centre",
      "name:ms": "Pusat Ujian & Vaksinasi Bersama Bukit Merah",
      "source": "Kaart Ground Survey 2017"
    },
    "source_query": "hospitals"
  },
  {
    "osm_id": 554570809,
    "osm_type": "way",
    "lat": 1.3497175,
    "lon": 103.7306922,
    "tags": {
      "amenity": "hospital",
      "healthcare": "hospital"
    },
    "source_query": "hospitals"
  },
  {
    "osm_id": 575304529,
    "osm_type": "way",
    "lat": 1.3821353,
    "lon": 103.8847334,
    "tags": {
      "amenity": "hospital",
      "fixme:name:zh": "-",
      "healthcare": "hospital",
      "name": "Buangkok Green Medical Park",
      "name:zh": "\u4e07\u56fd\u57d4\u533b\u7597\u56ed"
    },
    "source_query": "hospitals"
  },
  {
    "osm_id": 586389089,
    "osm_type": "way",
    "lat": 1.424561,
    "lon": 103.7945949,
    "tags": {
      "amenity": "hospital",
      "healthcare": "hospital",
      "name": "Woodlands Health Campus"
    },
    "source_query": "hospitals"
  },
  {
    "osm_id": 661998662,
    "osm_type": "way",
    "lat": 1.3908033,
    "lon": 103.9035976,
    "tags": {
      "addr:city": "Singapore",
      "addr:housenumber": "60",
      "addr:street": "Sengkang East Way",
      "amenity": "hospital",
      "healthcare": "hospital",
      "name": "Sengkang Joint Testing & Vaccination Centre",
      "name:ms": "Pusat Ujian & Vaksinasi Bersama Sengkang"
    },
    "source_query": "hospitals"
  },
  {
    "osm_id": 678967931,
    "osm_type": "way",
    "lat": 1.3198366,
    "lon": 103.8490258,
    "tags": {
      "amenity": "hospital",
      "healthcare": "hospital",
      "landuse": "healthcare"
    },
    "source_query": "hospitals"
  },
  {
    "osm_id": 695937161,
    "osm_type": "way",
    "lat": 1.363278,
    "lon": 103.9376016,
    "tags": {
      "amenity": "hospital",
      "healthcare": "hospital"
    },
    "source_query": "hospitals"
  },
  {
    "osm_id": 727076984,
    "osm_type": "way",
    "lat": 1.3237311,
    "lon": 103.8464927,
    "tags": {
      "addr:city": "Singapore",
      "addr:country": "SG",
      "addr:housenumber": "1",
      "addr:postcode": "307382",
      "addr:street": "Tan Tock Seng Link",
      "alt_name": "TTSH Integrated Care Hub",
      "amenity": "hospital",
      "building": "hospital",
      "building:levels": "16",
      "check_date": "2023-11-13",
      "healthcare": "hospital",
      "healthcare:speciality": "palliative;rehabilitation",
      "name": "Tan Tock Seng Hospital Integrated Care Hub",
      "operator": "Tan Tok Seng Hospital",
      "operator:type": "public",
      "short_name": "TTSH-ICH"
    },
    "source_query": "hospitals"
  },
  {
    "osm_id": 746034993,
    "osm_type": "way",
    "lat": 1.4242698,
    "lon": 103.8386476,
    "tags": {
      "addr:city": "Singapore",
      "addr:housenumber": "90",
      "addr:postcode": "768828",
      "addr:street": "Yishun Central",
      "amenity": "hospital",
      "healthcare": "hospital",
      "name": "Khoo Teck Puat Hospital",
      "name:ms": "Hospital Khoo Teck Puat",
      "name:zh": "\u90b1\u5fb7\u62d4\u533b\u9662",
      "website": "https://www.ktph.com.sg/",
      "wheelchair": "yes",
      "wikidata": "Q6402273"
    },
    "source_query": "hospitals"
  },
  {
    "osm_id": 751064398,
    "osm_type": "way",
    "lat": 1.3051574,
    "lon": 103.8352868,
    "tags": {
      "amenity": "hospital",
      "healthcare": "hospital",
      "name": "Mount Elizabeth Hospital",
      "name:ms": "Hospital Mount Elizabeth",
      "name:zh": "\u4f0a\u4e3d\u838e\u767d\u533b\u9662",
      "wikidata": "Q1320916",
      "wikimedia_commons": "Category:Mount Elizabeth Medical Centre",
      "wikipedia": "en:Mount Elizabeth Hospital"
    },
    "source_query": "hospitals"
  },
  {
    "osm_id": 809888784,
    "osm_type": "way",
    "lat": 1.3370448,
    "lon": 103.8750694,
    "tags": {
      "addr:street": "Alkaff Crescent",
      "amenity": "hospital",
      "construction": "healthcare",
      "emergency": "no",
      "healthcare": "hospital",
      "healthcare:speciality": "general;community",
      "landuse": "construction",
      "name": "Bidadari Polyclinic & Nursing Home",
      "name:zh": "\u6bd4\u8fbe\u8fbe\u5229\u7efc\u5408\u8bca\u7597\u6240\u548c\u7597\u517b\u9662",
      "operator": "National Healthcare Group",
      "operator:type": "public"
    },
    "source_query": "hospitals"
  },
  {
    "osm_id": 886859478,
    "osm_type": "way",
    "lat": 1.3215775,
    "lon": 103.8467939,
    "tags": {
      "amenity": "hospital",
      "healthcare": "hospital",
      "name": "HealthCity Novena",
      "name:zh": "\u7ef4\u5a1c\u5065\u5eb7\u57ce"
    },
    "source_query": "hospitals"
  },
  {
    "osm_id": 893603790,
    "osm_type": "way",
    "lat": 1.3370467,
    "lon": 103.9176372,
    "tags": {
      "amenity": "hospital",
      "healthcare": "hospital",
      "name": "Eastern General Hospital",
      "name:ms": "Hospital Besar Timur",
      "operator": "SingHealth",
      "operator:type": "government"
    },
    "source_query": "hospitals"
  },
  {
    "osm_id": 1041665295,
    "osm_type": "way",
    "lat": 1.3218621,
    "lon": 103.8809421,
    "tags": {
      "amenity": "hospital",
      "healthcare": "hospital",
      "name": "St Andrew's Nursing Home (Aljunied)"
    },
    "source_query": "hospitals"
  },
  {
    "osm_id": 1110683914,
    "osm_type": "way",
    "lat": 1.3122008,
    "lon": 103.8460767,
    "tags": {
      "amenity": "hospital",
      "healthcare": "hospital",
      "name": "KKH@Halifax"
    },
    "source_query": "hospitals"
  },
  {
    "osm_id": 1164409385,
    "osm_type": "way",
    "lat": 1.3310728,
    "lon": 103.7229451,
    "tags": {
      "amenity": "hospital",
      "healthcare": "hospital",
      "name": "West Point Hospital",
      "name:ms": "Hospital West Point",
      "name:zh": "\u5eb7\u88d5\u533b\u9662"
    },
    "source_query": "hospitals"
  },
  {
    "osm_id": 1180351283,
    "osm_type": "way",
    "lat": 1.3104607,
    "lon": 103.8467921,
    "tags": {
      "amenity": "hospital",
      "healthcare": "hospital"
    },
    "source_query": "hospitals"
  },
  {
    "osm_id": 1286187574,
    "osm_type": "way",
    "lat": 1.3266442,
    "lon": 103.8545912,
    "tags": {
      "addr:city": "Singapore",
      "addr:country": "SG",
      "addr:housenumber": "81",
      "addr:postcode": "328836",
      "addr:street": "Kim Keat Road",
      "alt_name": "NKF Centre",
      "amenity": "hospital",
      "emergency": "no",
      "healthcare": "hospital",
      "name": "National Kidney Foundation Dialysis Centre",
      "name:zh": "\u5168\u56fd\u80be\u810f\u57fa\u91d1\u4f1a\u6d17\u80be\u4e2d\u5fc3",
      "source": "Bing",
      "website": "https://www.nkfs.org/",
      "wikidata": "Q6973911",
      "wikipedia": "en:National Kidney Foundation Singapore"
    },
    "source_query": "hospitals"
  },
  {
    "osm_id": 1332147158,
    "osm_type": "way",
    "lat": 1.3254213,
    "lon": 103.841494,
    "tags": {
      "amenity": "hospital",
      "healthcare": "hospital"
    },
    "source_query": "hospitals"
  },
  {
    "osm_id": 1345623876,
    "osm_type": "way",
    "lat": 1.3268013,
    "lon": 103.8133285,
    "tags": {
      "addr:city": "Singapore",
      "addr:country": "SG",
      "addr:housenumber": "19",
      "addr:postcode": "289891",
      "addr:street": "Adam Road",
      "amenity": "hospital",
      "emergency": "yes",
      "healthcare": "hospital",
      "name": "Crawfurd Hospital",
      "name:ms": "Hospital Crawfurd",
      "name:zh": "\u798f\u5fb7\u533b\u9662",
      "operator": "Crawfurd Medical"
    },
    "source_query": "hospitals"
  },
  {
    "osm_id": 1424056384,
    "osm_type": "way",
    "lat": 1.3154475,
    "lon": 103.9322002,
    "tags": {
      "addr:city": "Singapore",
      "addr:housenumber": "208",
      "addr:postcode": "469726",
      "addr:street": "Bedok South Avenue 1",
      "amenity": "hospital",
      "email": "general@sach.org.sg",
      "emergency": "no",
      "healthcare": "hospital",
      "name": "St. Andrew's Community Hospital (Bedok)",
      "phone": "+65 6399 3888"
    },
    "source_query": "hospitals"
  },
  {
    "osm_id": 1726418,
    "osm_type": "relation",
    "lat": 1.3827907,
    "lon": 103.8843179,
    "tags": {
      "amenity": "hospital",
      "building": "yes",
      "healthcare": "hospital",
      "name": "Institute Of Mental Health",
      "name:zh": "\u5fc3\u7406\u536b\u751f\u5b66\u9662",
      "type": "multipolygon"
    },
    "source_query": "hospitals"
  },
  {
    "osm_id": 2303411,
    "osm_type": "relation",
    "lat": 1.3212799,
    "lon": 103.8462045,
    "tags": {
      "addr:city": "Singapore",
      "addr:country": "SG",
      "addr:housenumber": "11",
      "addr:postcode": "308433",
      "addr:street": "Jalan Tan Tock Seng",
      "amenity": "hospital",
      "building": "hospital",
      "email": "contact@ttsh.com.sg",
      "emergency": "yes",
      "healthcare": "hospital",
      "height": "0",
      "layer": "1",
      "name": "Tan Tock Seng Hospital",
      "name:en": "Tan Tock Seng Hospital",
      "name:ms": "Hospital Tan Tock Seng",
      "name:zh": "\u9648\u7b03\u751f\u533b\u9662",
      "name:zh-Hans": "\u9648\u7b03\u751f\u533b\u9662",
      "name:zh-Hant": "\u9673\u7be4\u751f\u91ab\u9662",
      "phone": "+65 62566011",
      "short_name": "TTSH",
      "type": "multipolygon",
      "url": "http://www.ttsh.com.sg/",
      "website": "https://www.ttsh.com.sg/",
      "wheelchair": "yes",
      "wikidata": "Q7682145",
      "wikipedia": "en:Tan Tock Seng Hospital"
    },
    "source_query": "hospitals"
  },
  {
    "osm_id": 1652500499,
    "osm_type": "node",
    "lat": 1.2961959,
    "lon": 103.7869593,
    "tags": {
      "addr:city": "Singapore",
      "addr:housenumber": "69",
      "addr:postcode": "139961",
      "addr:street": "Ayer Rajah Crescent",
      "amenity": "clinic",
      "healthcare": "clinic",
      "name": "Dover Medical Centre",
      "opening_hours": "Mo-Fr 08:30-17:30",
      "phone": "+65 67756266"
    },
    "source_query": "clinics"
  },
  {
    "osm_id": 1834256905,
    "osm_type": "node",
    "lat": 1.3220719,
    "lon": 103.8455834,
    "tags": {
      "addr:city": "Singapore",
      "addr:country": "SG",
      "addr:housenumber": "11",
      "addr:postcode": "308433",
      "addr:street": "Jalan Tan Tock Seng",
      "amenity": "doctors",
      "email": "appointments@nni.com.sg",
      "fax": "+65 63577103",
      "level": "1",
      "name": "National Neuroscience Institute",
      "opening_hours": "Mo-We 08:00-17:30;Th 08:00-17:00;Fr 08:00-17:30",
      "phone": "+65 63306363",
      "website": "https://www.nni.com.sg/"
    },
    "source_query": "clinics"
  },
  {
    "osm_id": 1843450677,
    "osm_type": "node",
    "lat": 1.3126992,
    "lon": 103.7656185,
    "tags": {
      "addr:city": "Singapore",
      "addr:country": "SG",
      "addr:housenumber": "451",
      "addr:postcode": "120451",
      "addr:street": "Clementi Avenue 3",
      "addr:unit": "#02-307",
      "amenity": "clinic",
      "branch": "Clementi",
      "healthcare": "clinic",
      "name": "Clementi Polyclinic",
      "name:ms": "Poliklinik Clementi",
      "opening_hours": "Mo-Fr 08:00-12:00,14:00-16:30; Sa 08:00-12:00; Su off; PH off",
      "operator": "National University Polyclinics",
      "phone": "+65 6355 3000",
      "website": "https://www.nup.com.sg/Pages/Our%20Clinics/our-clinics-clemp.aspx"
    },
    "source_query": "clinics"
  },
  {
    "osm_id": 2383936396,
    "osm_type": "node",
    "lat": 1.3235646,
    "lon": 103.9109013,
    "tags": {
      "amenity": "doctors",
      "healthcare": "doctor",
      "name": "Healthway Kembangan Clinic"
    },
    "source_query": "clinics"
  },
  {
    "osm_id": 2491833332,
    "osm_type": "node",
    "lat": 1.3098536,
    "lon": 103.7685997,
    "tags": {
      "amenity": "clinic",
      "healthcare": "clinic",
      "name": "My Family Clinic"
    },
    "source_query": "clinics"
  },
  {
    "osm_id": 2491836241,
    "osm_type": "node",
    "lat": 1.3098704,
    "lon": 103.7686377,
    "tags": {
      "amenity": "clinic",
      "healthcare": "clinic",
      "healthcare:speciality": "dental_oral_maxillo_facial_surgery",
      "name": "Casa Dental"
    },
    "source_query": "clinics"
  },
  {
    "osm_id": 3038816607,
    "osm_type": "node",
    "lat": 1.2836914,
    "lon": 103.8170178,
    "tags": {
      "addr:city": "Singapore",
      "addr:country": "SG",
      "addr:flats": "#04-3565",
      "addr:housenumber": "163",
      "addr:postcode": "150163",
      "addr:street": "Bukit Merah Central",
      "amenity": "clinic",
      "branch": "Bukit Merah",
      "email": "bukitmerahpolyclinic@singhealth.com.sg",
      "healthcare": "clinic",
      "name": "Bukit Merah Polyclinic",
      "name:ms": "Poliklinik Bukit Merah",
      "opening_hours": "Mo-Fr 08:00-12:00,14:00-16:30; Sa 08:00-12:00; Su off; PH off",
      "operator": "SingHealth",
      "phone": "+65 6643 6969",
      "website": "https://polyclinic.singhealth.com.sg/AboutSingHealthPolyclinics/OurPolyclinics/BukitMerah/Pages/Home.aspx"
    },
    "source_query": "clinics"
  },
  {
    "osm_id": 3082239298,
    "osm_type": "node",
    "lat": 1.3661806,
    "lon": 103.8477074,
    "tags": {
      "amenity": "doctors",
      "healthcare": "doctor",
      "name": "Singapore Buddist Free Clinic (Ang Mo Kio)",
      "website": "https://www.sbfc.org.sg/"
    },
    "source_query": "clinics"
  },
  {
    "osm_id": 3306882410,
    "osm_type": "node",
    "lat": 1.3219646,
    "lon": 103.7708148,
    "tags": {
      "addr:housenumber": "01-25",
      "addr:street": "Sunset Way",
      "amenity": "doctors",
      "name": "The Dublin Clinic"
    },
    "source_query": "clinics"
  },
  {
    "osm_id": 3653443299,
    "osm_type": "node",
    "lat": 1.3134445,
    "lon": 103.8996213,
    "tags": {
      "addr:street": "Joo Chiat Road",
      "amenity": "doctors",
      "healthcare": "doctor",
      "name": "Chiat Clinic for Women"
    },
    "source_query": "clinics"
  },
  {
    "osm_id": 3653443357,
    "osm_type": "node",
    "lat": 1.3128341,
    "lon": 103.8998577,
    "tags": {
      "addr:street": "Joo Chiat Road",
      "amenity": "doctors",
      "healthcare": "doctor",
      "name": "Vidajoie Chiropractic Centre"
    },
    "source_query": "clinics"
  },
  {
    "osm_id": 3923016227,
    "osm_type": "node",
    "lat": 1.3771215,
    "lon": 103.772944,
    "tags": {
      "addr:housenumber": "259",
      "addr:street": "Bukit Panjang Ring Road",
      "amenity": "clinic",
      "check_date": "2024-08-31",
      "healthcare": "clinic",
      "name": "Prohealth",
      "opening_hours": "24/7"
    },
    "source_query": "clinics"
  },
  {
    "osm_id": 4047297300,
    "osm_type": "node",
    "lat": 1.3414089,
    "lon": 103.6912394,
    "tags": {
      "addr:city": "Singapore",
      "addr:country": "SG",
      "addr:housenumber": "960",
      "addr:postcode": "640960",
      "addr:street": "Jurong West Street 92",
      "addr:unit": "#01-166",
      "amenity": "doctors",
      "branch": "Tuas",
      "healthcare": "doctor",
      "name": "Healthway Medical",
      "phone": "+65 67915680"
    },
    "source_query": "clinics"
  },
  {
    "osm_id": 4362501790,
    "osm_type": "node",
    "lat": 1.3236806,
    "lon": 103.8102598,
    "tags": {
      "amenity": "doctors",
      "healthcare": "doctor",
      "name": "Adam Road Medical Center"
    },
    "source_query": "clinics"
  },
  {
    "osm_id": 4368147044,
    "osm_type": "node",
    "lat": 1.3110846,
    "lon": 103.7952681,
    "tags": {
      "addr:housenumber": "6",
      "addr:street": "Lorong Mambong",
      "amenity": "clinic",
      "name": "BOEY @ Holland V Family Clinic"
    },
    "source_query": "clinics"
  },
  {
    "osm_id": 4465898691,
    "osm_type": "node",
    "lat": 1.3935916,
    "lon": 103.909454,
    "tags": {
      "amenity": "clinic",
      "healthcare": "clinic"
    },
    "source_query": "clinics"
  },
  {
    "osm_id": 4483878497,
    "osm_type": "node",
    "lat": 1.29925,
    "lon": 103.8534007,
    "tags": {
      "amenity": "clinic",
      "check_date": "2025-03-12",
      "healthcare": "clinic",
      "level": "0",
      "name": "Inmed",
      "toilets:wheelchair": "no",
      "wheelchair": "limited"
    },
    "source_query": "clinics"
  },
  {
    "osm_id": 4494189991,
    "osm_type": "node",
    "lat": 1.301773,
    "lon": 103.8577221,
    "tags": {
      "addr:housenumber": "390 #03-34",
      "addr:postcode": "188061",
      "addr:street": "Victoria Street",
      "amenity": "clinic",
      "healthcare": "clinic",
      "name": "KiroLounge - The Spine Place",
      "opening_hours": "Tu-Fr 10:00-12:30, 16:00-19:30; Sa 09:00-12:30; PH off",
      "operator": "KiroLounge",
      "phone": "+6563363738",
      "website": "https://thekirolounge.com/"
    },
    "source_query": "clinics"
  },
  {
    "osm_id": 4502007590,
    "osm_type": "node",
    "lat": 1.3208122,
    "lon": 103.8621964,
    "tags": {
      "addr:city": "Singapore",
      "addr:housenumber": "102",
      "addr:postcode": "322102",
      "addr:street": "Towner Road",
      "addr:unit": "#01-272",
      "amenity": "clinic",
      "healthcare": "clinic",
      "healthcare:speciality": "dermatology",
      "name": "Trans Island Medical Group",
      "name:zh": "\u73af\u5c9b\u897f\u836f\u623f",
      "opening_hours": "Mo-Fr 10:30-13:00, 14:00-18:00; Sa 09:30-12:00",
      "phone": "+6562991898"
    },
    "source_query": "clinics"
  },
  {
    "osm_id": 4543371389,
    "osm_type": "node",
    "lat": 1.3231246,
    "lon": 103.9338473,
    "tags": {
      "amenity": "doctors",
      "healthcare": "doctor",
      "name": "W H Yak Family Clinic",
      "name:en": "W H Yak Family Clinic"
    },
    "source_query": "clinics"
  },
  {
    "osm_id": 4583783511,
    "osm_type": "node",
    "lat": 1.3195749,
    "lon": 103.88731,
    "tags": {
      "addr:city": "Singapore",
      "addr:country": "SG",
      "addr:housenumber": "21",
      "addr:postcode": "389707",
      "addr:street": "Geylang East Central",
      "amenity": "clinic",
      "branch": "Geylang",
      "email": "geylangpolyclinic@singhealth.com.sg",
      "healthcare": "clinic",
      "name": "Geylang Polyclinic",
      "name:ms": "Poliklinik Geylang",
      "opening_hours": "Mo-Fr 08:00-12:00,14:00-16:30; Sa 08:00-12:00; Su off; PH off",
      "operator": "SingHealth",
      "phone": "+65 6643 6969",
      "source": "Kaart Ground Survey 2017",
      "website": "https://polyclinic.singhealth.com.sg/AboutUs/OurPolyclinics/Pages/SHP-Geylang.aspx"
    },
    "source_query": "clinics"
  },
  {
    "osm_id": 4583841487,
    "osm_type": "node",
    "lat": 1.4307876,
    "lon": 103.7752254,
    "tags": {
      "addr:city": "Singapore",
      "addr:country": "SG",
      "addr:housenumber": "10",
      "addr:postcode": "738579",
      "addr:street": "Woodlands Street 31",
      "amenity": "clinic",
      "branch": "Woodlands",
      "name": "Woodlands Polyclinic",
      "name:ms": "Poliklinik Woodlands",
      "opening_hours": "Mo-Fr 08:00-12:00,14:00-16:30; Sa 08:00-12:00; Su off; PH off",
      "operator": "National Healthcare Group",
      "phone": "+65 6355 3000",
      "website": "https://www.nhgp.com.sg/Our_Clinics/Woodlands_Polyclinic/"
    },
    "source_query": "clinics"
  },
  {
    "osm_id": 4583842089,
    "osm_type": "node",
    "lat": 1.3496231,
    "lon": 103.7307295,
    "tags": {
      "addr:city": "Singapore",
      "addr:country": "SG",
      "addr:housenumber": "190",
      "addr:postcode": "609788",
      "addr:street": "Jurong East Avenue 1",
      "amenity": "clinic",
      "healthcare": "clinic",
      "name": "Jurong Polyclinic",
      "name:ms": "Poliklinik Jurong",
      "opening_hours": "Mo-Fr 08:00-12:00,14:00-16:30; Sa 08:00-12:00; Su off; PH off",
      "operator": "National Healthcare Group",
      "phone": "+65 6355 3000",
      "website": "https://www.nhgp.com.sg/Our_Clinics/Jurong_Polyclinic/"
    },
    "source_query": "clinics"
  },
  {
    "osm_id": 4583842091,
    "osm_type": "node",
    "lat": 1.3520458,
    "lon": 103.747842,
    "tags": {
      "addr:city": "Singapore",
      "addr:country": "SG",
      "addr:housenumber": "50",
      "addr:postcode": "659164",
      "addr:street": "Bukit Batok West Avenue 3",
      "amenity": "clinic",
      "branch": "Bukit Batok",
      "name": "Bukit Batok Polyclinic",
      "name:ms": "Poliklinik Bukit Batok",
      "opening_hours": "Mo-Fr 08:00-12:00,14:00-16:30; Sa 08:00-12:00; Su off; PH off",
      "operator": "National Healthcare Group",
      "phone": "+65 6355 3000",
      "website": "https://www.nhgp.com.sg/Our_Clinics/Bukit_Batok_Polyclinic/"
    },
    "source_query": "clinics"
  },
  {
    "osm_id": 4583842093,
    "osm_type": "node",
    "lat": 1.3572803,
    "lon": 103.9458598,
    "tags": {
      "addr:city": "Singapore",
      "addr:country": "SG",
      "addr:housenumber": "1",
      "addr:postcode": "529203",
      "addr:street": "Tampines Street 41",
      "amenity": "clinic",
      "branch": "Tampines",
      "email": "tampinespolyclinic@singhealth.com.sg",
      "healthcare": "clinic",
      "name": "Tampines Polyclinic",
      "name:ms": "Poliklinik Tampines",
      "name:zh": "\u6de1\u6ee8\u5c3c\u7efc\u5408\u8bca\u7597\u6240",
      "opening_hours": "Mo-Fr 08:00-12:00,14:00-16:30; Sa 08:00-12:00; Su off; PH off",
      "operator": "SingHealth",
      "phone": "+65 6643 6969",
      "website": "https://polyclinic.singhealth.com.sg/AboutUs/OurPolyclinics/Pages/SHP-Tampines.aspx"
    },
    "source_query": "clinics"
  },
  {
    "osm_id": 4583842094,
    "osm_type": "node",
    "lat": 1.3926934,
    "lon": 103.8941112,
    "tags": {
      "addr:city": "Singapore",
      "addr:country": "SG",
      "addr:housenumber": "2",
      "addr:postcode": "545025",
      "addr:street": "Sengkang Square",
      "addr:unit": "#01-06",
      "amenity": "clinic",
      "branch": "Sengkang",
      "healthcare": "clinic",
      "healthcare:speciality": "general",
      "level": "0;1;2",
      "name": "Sengkang Polyclinic",
      "name:ms": "Poliklinik Sengkang",
      "opening_hours": "Mo-Fr 08:00-13:00,14:00-16:30; Sa 08:00-12:30; Su off; PH off",
      "operator": "SingHealth"
    },
    "source_query": "clinics"
  },
  {
    "osm_id": 4583842097,
    "osm_type": "node",
    "lat": 1.2799045,
    "lon": 103.8381683,
    "tags": {
      "addr:city": "Singapore",
      "addr:country": "SG",
      "addr:housename": "Health Promotion Board Building",
      "addr:housenumber": "3",
      "addr:postcode": "168937",
      "addr:street": "Second Hospital Avenue",
      "addr:unit": "#02-00",
      "amenity": "clinic",
      "branch": "Outram",
      "email": "outrampolyclinic@singhealth.com.sg",
      "healthcare": "clinic",
      "name": "Outram Polyclinic",
      "name:ms": "Poliklinik Outram",
      "opening_hours": "Mo-Fr 08:00-12:00,14:00-16:30; Sa 08:00-12:00; Su off; PH off",
      "operator": "SingHealth",
      "phone": "+65 6643 6969",
      "website": "https://polyclinic.singhealth.com.sg/AboutUs/OurPolyclinics/Pages/SHP-Outram.aspx"
    },
    "source_query": "clinics"
  },
  {
    "osm_id": 4583842098,
    "osm_type": "node",
    "lat": 1.3025477,
    "lon": 103.9077648,
    "tags": {
      "addr:city": "Singapore",
      "addr:country": "SG",
      "addr:housenumber": "80",
      "addr:postcode": "440080",
      "addr:street": "Marine Parade Central",
      "amenity": "clinic",
      "branch": "Marine Parade",
      "email": "marineparadepolyclinic@singhealth.com.sg",
      "healthcare": "clinic",
      "name": "Marine Parade Polyclinic",
      "name:ms": "Poliklinik Marine Parade",
      "opening_hours": "Mo-Fr 08:00-12:00,14:00-16:30; Sa 08:00-12:00; Su off; PH off",
      "operator": "SingHealth",
      "phone": "+65 6643 6969",
      "website": "https://polyclinic.singhealth.com.sg/AboutUs/OurPolyclinics/Pages/SHP-MarineParade.aspx#"
    },
    "source_query": "clinics"
  },
  {
    "osm_id": 4583842101,
    "osm_type": "node",
    "lat": 1.3269378,
    "lon": 103.9316066,
    "tags": {
      "addr:city": "Singapore",
      "addr:country": "SG",
      "addr:housenumber": "212",
      "addr:postcode": "460212",
      "addr:street": "Bedok North Street 1",
      "addr:unit": "#03-147",
      "amenity": "clinic",
      "branch": "Bedok",
      "email": "bedokpolyclinic@singhealth.com.sg",
      "healthcare": "clinic",
      "healthcare:speciality": "fertility",
      "name": "Bedok Polyclinic",
      "name:ms": "Poliklinik Bedok",
      "opening_hours": "Mo-Fr 08:00-12:00,14:00-16:30; Sa 08:00-12:00; Su off; PH off",
      "operator": "SingHealth",
      "phone": "+65 6643 6969",
      "website": "https://polyclinic.singhealth.com.sg/AboutUs/OurPolyclinics/Pages/SHP-Bedok.aspx"
    },
    "source_query": "clinics"
  },
  {
    "osm_id": 4583845858,
    "osm_type": "node",
    "lat": 1.3686674,
    "lon": 103.9592631,
    "tags": {
      "addr:city": "Singapore",
      "addr:country": "SG",
      "addr:housenumber": "1",
      "addr:postcode": "519457",
      "addr:street": "Pasir Ris Drive 4",
      "addr:unit": "#01-11",
      "amenity": "clinic",
      "branch": "Pasir Ris",
      "email": "pasirrispolyclinic@singhealth.com.sg",
      "healthcare": "clinic",
      "name": "Pasir Ris Polyclinic",
      "name:ms": "Poliklinik Pasir Ris",
      "opening_hours": "Mo-Fr 08:00-12:00,14:00-16:30; Sa 08:00-12:00; Su off; PH off",
      "operator": "SingHealth",
      "phone": "+65 6643 6969",
      "website": "https://polyclinic.singhealth.com.sg/AboutUs/OurPolyclinics/Pages/SHP-.aspx"
    },
    "source_query": "clinics"
  },
  {
    "osm_id": 4584767744,
    "osm_type": "node",
    "lat": 1.3377341,
    "lon": 103.7202944,
    "tags": {
      "addr:city": "Singapore",
      "addr:country": "SG",
      "addr:housenumber": "365",
      "addr:postcode": "610365",
      "addr:street": "Corporation Drive",
      "amenity": "doctors",
      "name": "Family Doctors at 365",
      "phone": "+65 62652968"
    },
    "source_query": "clinics"
  },
  {
    "osm_id": 4584770964,
    "osm_type": "node",
    "lat": 1.3173353,
    "lon": 103.6521976,
    "tags": {
      "addr:city": "Singapore",
      "addr:country": "SG",
      "addr:housename": "Tuas Amenity Centre",
      "addr:housenumber": "71",
      "addr:postcode": "639591",
      "addr:street": "Pioneer Road",
      "addr:unit": "#01-06",
      "amenity": "doctors",
      "name": "Acumed Medical Group",
      "phone": "+65 68615996"
    },
    "source_query": "clinics"
  },
  {
    "osm_id": 4584770965,
    "osm_type": "node",
    "lat": 1.3248462,
    "lon": 103.6957771,
    "tags": {
      "addr:city": "Singapore",
      "addr:country": "SG",
      "addr:housenumber": "7",
      "addr:postcode": "628459",
      "addr:street": "Pioneer Road North",
      "amenity": "doctors",
      "name": "Acumed Medical Group",
      "phone": "+65 62610377"
    },
    "source_query": "clinics"
  },
  {
    "osm_id": 4584770966,
    "osm_type": "node",
    "lat": 1.346558,
    "lon": 103.7121141,
    "tags": {
      "addr:city": "Singapore",
      "addr:country": "SG",
      "addr:housename": "Boon Lay Shopping Centre",
      "addr:housenumber": "221",
      "addr:postcode": "640221",
      "addr:street": "Boon Lay Place",
      "addr:unit": "#01-152",
      "amenity": "doctors",
      "name": "OneCare Clinic Boon Lay",
      "phone": "+65 62611580"
    },
    "source_query": "clinics"
  },
  {
    "osm_id": 4584770967,
    "osm_type": "node",
    "lat": 1.3467542,
    "lon": 103.7121778,
    "tags": {
      "addr:city": "Singapore",
      "addr:country": "SG",
      "addr:housename": "Boon Lay Shopping Centre",
      "addr:housenumber": "221",
      "addr:postcode": "640221",
      "addr:street": "Boon Lay Place",
      "addr:unit": "#02-160",
      "amenity": "doctors",
      "name": "Community Medical Clinic",
      "phone": "+65 62610672"
    },
    "source_query": "clinics"
  },
  {
    "osm_id": 4584770968,
    "osm_type": "node",
    "lat": 1.3464427,
    "lon": 103.7121847,
    "tags": {
      "addr:city": "Singapore",
      "addr:country": "SG",
      "addr:housename": "Boon Lay Shopping Centre",
      "addr:housenumber": "221",
      "addr:postcode": "640221",
      "addr:street": "Boon Lay Place",
      "addr:unit": "#01-240/244",
      "amenity": "doctors",
      "name": "Boon Lay Clinic & Surgery",
      "phone": "+65 62655247"
    },
    "source_query": "clinics"
  },
  {
    "osm_id": 4584770969,
    "osm_type": "node",
    "lat": 1.3463877,
    "lon": 103.7122329,
    "tags": {
      "addr:city": "Singapore",
      "addr:country": "SG",
      "addr:housename": "Boon Lay Shopping Centre",
      "addr:housenumber": "221",
      "addr:postcode": "640221",
      "addr:street": "Boon Lay Place",
      "addr:unit": "#01-108",
      "amenity": "doctors",
      "name": "Bless Medical Centre",
      "phone": "+65 62664119"
    },
    "source_query": "clinics"
  },
  {
    "osm_id": 4584770970,
    "osm_type": "node",
    "lat": 1.3383092,
    "lon": 103.7053262,
    "tags": {
      "addr:city": "Singapore",
      "addr:country": "SG",
      "addr:housename": "Boon Lay MRT Station",
      "addr:housenumber": "301",
      "addr:postcode": "649846",
      "addr:street": "Boon Lay Way",
      "addr:unit": "#01-02",
      "amenity": "doctors",
      "healthcare": "doctor",
      "name": "Dr. W. K. Koo & Associates P.L.",
      "name:en": "Dr. W. K. Koo & Associates P.L.",
      "phone": "+65 67948767"
    },
    "source_query": "clinics"
  },
  {
    "osm_id": 4584770971,
    "osm_type": "node",
    "lat": 1.3382834,
    "lon": 103.7052453,
    "tags": {
      "addr:city": "Singapore",
      "addr:country": "SG",
      "addr:housename": "Boon Lay MRT Station",
      "addr:housenumber": "301",
      "addr:postcode": "649846",
      "addr:street": "Boon Lay Way",
      "addr:unit": "#01-18/19",
      "amenity": "doctors",
      "healthcare": "doctor",
      "name": "AcuMed Medical Group",
      "name:en": "AcuMed Medical Group",
      "phone": "+65 65159919"
    },
    "source_query": "clinics"
  },
  {
    "osm_id": 4584771390,
    "osm_type": "node",
    "lat": 1.3323546,
    "lon": 103.7224647,
    "tags": {
      "addr:city": "Singapore",
      "addr:country": "SG",
      "addr:housenumber": "64",
      "addr:postcode": "610064",
      "addr:street": "Yung Kuang Road",
      "addr:unit": "#01-107/111",
      "amenity": "doctors",
      "name": "Acumed Medical Group",
      "phone": "+65 62656422"
    },
    "source_query": "clinics"
  },
  {
    "osm_id": 4584771391,
    "osm_type": "node",
    "lat": 1.3322962,
    "lon": 103.7223379,
    "tags": {
      "addr:city": "Singapore",
      "addr:country": "SG",
      "addr:housenumber": "64",
      "addr:postcode": "610064",
      "addr:street": "Yung Kuang Road",
      "addr:unit": "#01-115",
      "amenity": "doctors",
      "name": "Drs Tang & Partners",
      "phone": "+65 62656077"
    },
    "source_query": "clinics"
  },
  {
    "osm_id": 4584771393,
    "osm_type": "node",
    "lat": 1.3270611,
    "lon": 103.7206635,
    "tags": {
      "addr:city": "Singapore",
      "addr:country": "SG",
      "addr:housenumber": "152",
      "addr:postcode": "610152",
      "addr:street": "Yung Ho Road",
      "addr:unit": "#B1-03",
      "amenity": "doctors",
      "name": "Drs Koo Loh & Associates",
      "phone": "+65 62665939"
    },
    "source_query": "clinics"
  },
  {
    "osm_id": 4584771394,
    "osm_type": "node",
    "lat": 1.326912,
    "lon": 103.7244263,
    "tags": {
      "addr:city": "Singapore",
      "addr:country": "SG",
      "addr:housename": "The Agape",
      "addr:housenumber": "21",
      "addr:postcode": "618593",
      "addr:street": "Yung Ho Road",
      "amenity": "doctors",
      "branch": "Jurong",
      "name": "Healthserve Community Clinic",
      "phone": "+65 67439774"
    },
    "source_query": "clinics"
  },
  {
    "osm_id": 4584771395,
    "osm_type": "node",
    "lat": 1.334493,
    "lon": 103.7206124,
    "tags": {
      "addr:city": "Singapore",
      "addr:country": "SG",
      "addr:housename": "Taman Jurong Shopping Centre",
      "addr:housenumber": "399",
      "addr:postcode": "610399",
      "addr:street": "Yung Sheng Road",
      "addr:unit": "#01-55",
      "amenity": "doctors",
      "name": "Family Point Clinic & Surgery",
      "phone": "+65 62680232"
    },
    "source_query": "clinics"
  },
  {
    "osm_id": 4584771396,
    "osm_type": "node",
    "lat": 1.3344901,
    "lon": 103.7202551,
    "tags": {
      "addr:city": "Singapore",
      "addr:country": "SG",
      "addr:housename": "Taman Jurong Shopping Centre",
      "addr:housenumber": "399",
      "addr:postcode": "610399",
      "addr:street": "Yung Sheng Road",
      "addr:unit": "#01-31",
      "amenity": "doctors",
      "branch": "Taman Jurong",
      "name": "Point Medical Group",
      "phone": "+65 62656587"
    },
    "source_query": "clinics"
  },
  {
    "osm_id": 4584771397,
    "osm_type": "node",
    "lat": 1.334493,
    "lon": 103.7204337,
    "tags": {
      "addr:city": "Singapore",
      "addr:country": "SG",
      "addr:housename": "Taman Jurong Shopping Centre",
      "addr:housenumber": "399",
      "addr:postcode": "610399",
      "addr:street": "Yung Sheng Road",
      "addr:unit": "#01-56",
      "amenity": "doctors",
      "branch": "Taman Jurong Pte Ltd",
      "name": "Prohealth Medical Group",
      "phone": "+65 62682628"
    },
    "source_query": "clinics"
  },
  {
    "osm_id": 4584780263,
    "osm_type": "node",
    "lat": 1.3401223,
    "lon": 103.7060509,
    "tags": {
      "addr:city": "Singapore",
      "addr:country": "SG",
      "addr:housename": "Jurong Point Shopping Centre",
      "addr:housenumber": "1",
      "addr:postcode": "648886",
      "addr:street": "Jurong West Central 2",
      "addr:unit": "#B1A-19E",
      "amenity": "doctors",
      "healthcare": "doctor",
      "name": "Acumed Medical Group",
      "phone": "+65 67923822"
    },
    "source_query": "clinics"
  },
  {
    "osm_id": 4584780264,
    "osm_type": "node",
    "lat": 1.3277251,
    "lon": 103.6779312,
    "tags": {
      "addr:city": "Singapore",
      "addr:country": "SG",
      "addr:housename": "Joo Koon MRT Station",
      "addr:housenumber": "91",
      "addr:postcode": "629116",
      "addr:street": "Joo Koon Circle",
      "addr:unit": "#02-02",
      "amenity": "doctors",
      "healthcare": "doctor",
      "name": "Acumed Medical Group",
      "phone": "+65 68615755"
    },
    "source_query": "clinics"
  },
  {
    "osm_id": 4584780265,
    "osm_type": "node",
    "lat": 1.2673611,
    "lon": 103.7043755,
    "tags": {
      "addr:city": "Singapore",
      "addr:country": "SG",
      "addr:housenumber": "3",
      "addr:postcode": "627878",
      "addr:street": "Sakra Road",
      "addr:unit": "#01-01",
      "amenity": "doctors",
      "name": "Acumed Medical Group",
      "phone": "+65 62617177"
    },
    "source_query": "clinics"
  },
  {
    "osm_id": 4584783893,
    "osm_type": "node",
    "lat": 1.3472212,
    "lon": 103.7098961,
    "tags": {
      "addr:city": "Singapore",
      "addr:country": "SG",
      "addr:housenumber": "176",
      "addr:postcode": "640176",
      "addr:street": "Boon Lay Drive",
      "amenity": "doctors",
      "branch": "Jurong",
      "name": "Clifford Dispensary",
      "phone": "+65 62651783"
    },
    "source_query": "clinics"
  },
  {
    "osm_id": 4584783894,
    "osm_type": "node",
    "lat": 1.3500434,
    "lon": 103.7247113,
    "tags": {
      "addr:city": "Singapore",
      "addr:country": "SG",
      "addr:housenumber": "492",
      "addr:postcode": "640492",
      "addr:street": "Jurong West Street 41",
      "addr:unit": "#01-54",
      "amenity": "doctors",
      "branch": "Jurong West",
      "healthcare": "doctor",
      "name": "Central 24-HR Clinic",
      "phone": "+65 65657484",
      "wheelchair": "limited"
    },
    "source_query": "clinics"
  },
  {
    "osm_id": 4584783895,
    "osm_type": "node",
    "lat": 1.3499625,
    "lon": 103.7192017,
    "tags": {
      "addr:city": "Singapore",
      "addr:country": "SG",
      "addr:housenumber": "501",
      "addr:postcode": "640501",
      "addr:street": "Jurong West Street 51",
      "addr:unit": "#01-271",
      "amenity": "doctors",
      "branch": "Jurong West",
      "healthcare": "doctor",
      "name": "Caring Family Clinic",
      "phone": "+65 65645677",
      "source": "Kaart Ground Survey 2017"
    },
    "source_query": "clinics"
  },
  {
    "osm_id": 4584783896,
    "osm_type": "node",
    "lat": 1.3504414,
    "lon": 103.7181864,
    "tags": {
      "addr:city": "Singapore",
      "addr:country": "SG",
      "addr:housenumber": "502",
      "addr:postcode": "640502",
      "addr:street": "Jurong West Avenue 1",
      "addr:unit": "#01-817",
      "amenity": "doctors",
      "branch": "Jurong West",
      "healthcare": "doctor",
      "name": "Banyan Clinic",
      "phone": "+65 68991161",
      "wheelchair": "yes"
    },
    "source_query": "clinics"
  },
  {
    "osm_id": 4584783897,
    "osm_type": "node",
    "lat": 1.3413796,
    "lon": 103.6914701,
    "tags": {
      "addr:city": "Singapore",
      "addr:housenumber": "960",
      "addr:postcode": "640960",
      "addr:street": "Jurong West Street 92",
      "addr:unit": "#01-172",
      "amenity": "doctors",
      "healthcare": "doctor",
      "name": "Apex Medical Centre",
      "phone": "+65 67912292"
    },
    "source_query": "clinics"
  },
  {
    "osm_id": 4584785814,
    "osm_type": "node",
    "lat": 1.337582,
    "lon": 103.6978778,
    "tags": {
      "addr:city": "Singapore",
      "addr:country": "SG",
      "addr:housenumber": "31",
      "addr:postcode": "648310",
      "addr:street": "Jurong West Street 63",
      "addr:unit": "#02-04",
      "amenity": "doctors",
      "healthcare": "doctor",
      "name": "Drs Koo, Fok & Associates",
      "phone": "+65 68622380"
    },
    "source_query": "clinics"
  },
  {
    "osm_id": 4584785815,
    "osm_type": "node",
    "lat": 1.3403378,
    "lon": 103.7062309,
    "tags": {
      "addr:city": "Singapore",
      "addr:country": "SG",
      "addr:housename": "Jurong Point Shopping Centre",
      "addr:housenumber": "1",
      "addr:postcode": "648886",
      "addr:street": "Jurong West Central 2",
      "addr:unit": "#01-16A&B",
      "amenity": "doctors",
      "healthcare": "doctor",
      "name": "Dr W K Koo & Associates",
      "opening_hours": "Mo-Fr 08:30-17:30; Sa 08:30-13:00",
      "phone": "+65 67922669"
    },
    "source_query": "clinics"
  },
  {
    "osm_id": 4584785816,
    "osm_type": "node",
    "lat": 1.3416457,
    "lon": 103.6930673,
    "tags": {
      "addr:city": "Singapore",
      "addr:country": "SG",
      "addr:housenumber": "966",
      "addr:postcode": "640966",
      "addr:street": "Jurong West Street 93",
      "addr:unit": "#01-221",
      "amenity": "doctors",
      "name": "Dr Soh Family Clinic",
      "phone": "+65 67917735"
    },
    "source_query": "clinics"
  },
  {
    "osm_id": 4584785817,
    "osm_type": "node",
    "lat": 1.3415639,
    "lon": 103.6971161,
    "tags": {
      "addr:city": "Singapore",
      "addr:country": "SG",
      "addr:housenumber": "638",
      "addr:postcode": "640638",
      "addr:street": "Jurong West Street 61",
      "addr:unit": "#02-05",
      "amenity": "doctors",
      "healthcare": "doctor",
      "name": "Dr Chua's Family Clinic",
      "phone": "+65 67928505"
    },
    "source_query": "clinics"
  },
  {
    "osm_id": 4584787689,
    "osm_type": "node",
    "lat": 1.3107871,
    "lon": 103.6302044,
    "tags": {
      "addr:city": "Singapore",
      "addr:country": "SG",
      "addr:housenumber": "14",
      "addr:postcode": "638118",
      "addr:street": "Tech Park Crescent",
      "addr:unit": "#01-01",
      "amenity": "doctors",
      "name": "Drs Koo, Loh & Fok",
      "phone": "+65 68632821"
    },
    "source_query": "clinics"
  },
  {
    "osm_id": 4584787690,
    "osm_type": "node",
    "lat": 1.3286162,
    "lon": 103.6938204,
    "tags": {
      "addr:city": "Singapore",
      "addr:country": "SG",
      "addr:housenumber": "4",
      "addr:postcode": "628909",
      "addr:street": "Kian Teck Avenue",
      "addr:unit": "#02-01",
      "amenity": "doctors",
      "name": "Drs Koo, Fok & Associates",
      "phone": "+65 62613629"
    },
    "source_query": "clinics"
  },
  {
    "osm_id": 4584793203,
    "osm_type": "node",
    "lat": 1.3414922,
    "lon": 103.6906352,
    "tags": {
      "addr:city": "Singapore",
      "addr:housenumber": "959",
      "addr:postcode": "640959",
      "addr:street": "Jurong West Street 92",
      "addr:unit": "#01-154",
      "amenity": "doctors",
      "healthcare": "doctor",
      "name": "Drs Oh, Lim, Wong & Partners",
      "phone": "+65 67913988"
    },
    "source_query": "clinics"
  },
  {
    "osm_id": 4584793405,
    "osm_type": "node",
    "lat": 1.3411979,
    "lon": 103.7068471,
    "tags": {
      "addr:city": "Singapore",
      "addr:country": "SG",
      "addr:housenumber": "690",
      "addr:postcode": "640690",
      "addr:street": "Jurong West Central 1",
      "addr:unit": "#01-193",
      "amenity": "doctors",
      "branch": "Jurong West",
      "healthcare": "doctor",
      "name": "Healthway Clinic",
      "phone": "+65 67921812",
      "wheelchair": "no"
    },
    "source_query": "clinics"
  },
  {
    "osm_id": 4584793406,
    "osm_type": "node",
    "lat": 1.3415955,
    "lon": 103.6971597,
    "tags": {
      "addr:city": "Singapore",
      "addr:country": "SG",
      "addr:housenumber": "638",
      "addr:postcode": "640638",
      "addr:street": "Jurong West Street 61",
      "addr:unit": "#02-08",
      "amenity": "doctors",
      "branch": "Pioneer Mall",
      "healthcare": "doctor",
      "name": "Healthmark Clinic",
      "phone": "+65 68613100"
    },
    "source_query": "clinics"
  },
  {
    "osm_id": 4584793407,
    "osm_type": "node",
    "lat": 1.3401964,
    "lon": 103.7062423,
    "tags": {
      "addr:city": "Singapore",
      "addr:country": "SG",
      "addr:housename": "Jurong Point Shopping Centre",
      "addr:housenumber": "1",
      "addr:postcode": "648886",
      "addr:street": "Jurong West Central 2",
      "addr:unit": "#B1A-19A",
      "amenity": "doctors",
      "healthcare": "doctor",
      "name": "GJ Medical Clinic",
      "phone": "+65 67958658"
    },
    "source_query": "clinics"
  },
  {
    "osm_id": 4584793408,
    "osm_type": "node",
    "lat": 1.3430696,
    "lon": 103.6819925,
    "tags": {
      "addr:city": "Singapore",
      "addr:country": "SG",
      "addr:housename": "Nanyang Technological University Medical Centre",
      "addr:housenumber": "1",
      "addr:postcode": "639798",
      "addr:street": "Nanyang Avenue",
      "amenity": "doctors",
      "name": "Gethin-Jones Medical Practice",
      "phone": "+65 67936828",
      "wheelchair": "yes"
    },
    "source_query": "clinics"
  },
  {
    "osm_id": 4584793410,
    "osm_type": "node",
    "lat": 1.3401735,
    "lon": 103.706178,
    "tags": {
      "addr:city": "Singapore",
      "addr:country": "SG",
      "addr:housename": "Jurong Point Shopping Centre",
      "addr:housenumber": "1",
      "addr:postcode": "648886",
      "addr:street": "Jurong West Central 2",
      "addr:unit": "#B1A-19B",
      "amenity": "doctors",
      "healthcare": "doctor",
      "name": "Fullerton Healthcare",
      "phone": "+65 67930611"
    },
    "source_query": "clinics"
  },
  {
    "osm_id": 4584793411,
    "osm_type": "node",
    "lat": 1.3450954,
    "lon": 103.7034374,
    "tags": {
      "addr:city": "Singapore",
      "addr:country": "SG",
      "addr:housenumber": "678D",
      "addr:postcode": "644678",
      "addr:street": "Jurong West Street 64",
      "addr:unit": "#01-347",
      "amenity": "doctors",
      "branch": "Jurong West",
      "name": "Frontier Medical Associates",
      "phone": "+65 68622340"
    },
    "source_query": "clinics"
  },
  {
    "osm_id": 4584793412,
    "osm_type": "node",
    "lat": 1.3486805,
    "lon": 103.6978081,
    "tags": {
      "addr:city": "Singapore",
      "addr:country": "SG",
      "addr:housenumber": "762",
      "addr:postcode": "640762",
      "addr:street": "Jurong West Street 75",
      "addr:unit": "#01-290",
      "amenity": "doctors",
      "healthcare": "doctor",
      "name": "Everhealth Family Clinic & Surgery",
      "phone": "+65 67933113"
    },
    "source_query": "clinics"
  },
  {
    "osm_id": 4584793413,
    "osm_type": "node",
    "lat": 1.3498403,
    "lon": 103.7253692,
    "tags": {
      "addr:city": "Singapore",
      "addr:country": "SG",
      "addr:housenumber": "492",
      "addr:postcode": "640492",
      "addr:street": "Jurong West Street 41",
      "addr:unit": "#01-40",
      "amenity": "doctors",
      "branch": "Jurong West",
      "healthcare": "doctor",
      "name": "Eden Family Clinic",
      "phone": "+65 65660257"
    },
    "source_query": "clinics"
  },
  {
    "osm_id": 4584793414,
    "osm_type": "node",
    "lat": 1.341631,
    "lon": 103.6913199,
    "tags": {
      "addr:city": "Singapore",
      "addr:housenumber": "962",
      "addr:postcode": "640962",
      "addr:street": "Jurong West Street 91",
      "addr:unit": "#01-306",
      "amenity": "doctors",
      "healthcare": "doctor",
      "name": "Foo Clinic",
      "phone": "+65 67918853"
    },
    "source_query": "clinics"
  },
  {
    "osm_id": 4584795920,
    "osm_type": "node",
    "lat": 1.3536024,
    "lon": 103.7040322,
    "tags": {
      "addr:city": "Singapore",
      "addr:country": "SG",
      "addr:housenumber": "276",
      "addr:postcode": "640276",
      "addr:street": "Jurong West Street 25",
      "addr:unit": "#01-160",
      "amenity": "doctors",
      "branch": "Jurong West",
      "name": "Hisemainn Medical Clinic",
      "phone": "+65 67958990"
    },
    "source_query": "clinics"
  },
  {
    "osm_id": 4584795956,
    "osm_type": "node",
    "lat": 1.3454394,
    "lon": 103.7194569,
    "tags": {
      "addr:city": "Singapore",
      "addr:country": "SG",
      "addr:housenumber": "517",
      "addr:postcode": "640517",
      "addr:street": "Jurong West Street 52",
      "addr:unit": "#01-101",
      "amenity": "doctors",
      "healthcare": "doctor",
      "name": "Icon Medical Clinic",
      "phone": "+65 65600521"
    },
    "source_query": "clinics"
  },
  {
    "osm_id": 4584796835,
    "osm_type": "node",
    "lat": 1.3503539,
    "lon": 103.7190743,
    "tags": {
      "addr:city": "Singapore",
      "addr:country": "SG",
      "addr:housenumber": "501",
      "addr:postcode": "640501",
      "addr:street": "Jurong West Street 51",
      "addr:unit": "#01-277",
      "alt_name": "Shifa Clinic Jurong",
      "amenity": "doctors",
      "branch": "Jurong West",
      "healthcare": "doctor",
      "name": "Kinder Family Clinic",
      "phone": "+65 64698941"
    },
    "source_query": "clinics"
  },
  {
    "osm_id": 4584797043,
    "osm_type": "node",
    "lat": 1.3489854,
    "lon": 103.7184351,
    "tags": {
      "addr:city": "Singapore",
      "addr:country": "SG",
      "addr:housenumber": "507",
      "addr:postcode": "640507",
      "addr:street": "Jurong West Street 52",
      "addr:unit": "#01-156",
      "amenity": "doctors",
      "branch": "Jurong West",
      "name": "JW Corporation Clinic",
      "phone": "+65 65646745"
    },
    "source_query": "clinics"
  },
  {
    "osm_id": 4584797044,
    "osm_type": "node",
    "lat": 1.3400736,
    "lon": 103.7059079,
    "tags": {
      "addr:city": "Singapore",
      "addr:country": "SG",
      "addr:housename": "Jurong Point Shopping Centre",
      "addr:housenumber": "1",
      "addr:postcode": "648886",
      "addr:street": "Jurong West Central 2",
      "addr:unit": "#B1A-20B",
      "amenity": "doctors",
      "healthcare": "doctor",
      "name": "Jurpoint Medicare Clinic",
      "phone": "+65 67940070"
    },
    "source_query": "clinics"
  },
  {
    "osm_id": 4584797045,
    "osm_type": "node",
    "lat": 1.3416751,
    "lon": 103.693105,
    "tags": {
      "addr:city": "Singapore",
      "addr:country": "SG",
      "addr:housenumber": "966",
      "addr:postcode": "640966",
      "addr:street": "Jurong West Street 93",
      "addr:unit": "#01-219",
      "amenity": "doctors",
      "name": "Jurong Day & Night Clinic",
      "phone": "+65 67922257"
    },
    "source_query": "clinics"
  },
  {
    "osm_id": 4584797046,
    "osm_type": "node",
    "lat": 1.3501969,
    "lon": 103.7242788,
    "tags": {
      "addr:city": "Singapore",
      "addr:country": "SG",
      "addr:housenumber": "492",
      "addr:postcode": "640492",
      "addr:street": "Jurong West Street 41",
      "addr:unit": "#01-80",
      "amenity": "doctors",
      "branch": "Jurong West",
      "healthcare": "doctor",
      "name": "John T.L. Lim Clinic & Surgery",
      "phone": "+65 65668828"
    },
    "source_query": "clinics"
  },
  {
    "osm_id": 4584797597,
    "osm_type": "node",
    "lat": 1.3416164,
    "lon": 103.6971951,
    "tags": {
      "addr:city": "Singapore",
      "addr:country": "SG",
      "addr:housenumber": "638",
      "addr:postcode": "640638",
      "addr:street": "Jurong West Street 61",
      "addr:unit": "#02-09",
      "amenity": "doctors",
      "healthcare": "doctor",
      "name": "My Family Clinic",
      "phone": "+65 68611182"
    },
    "source_query": "clinics"
  },
  {
    "osm_id": 4584797598,
    "osm_type": "node",
    "lat": 1.34413,
    "lon": 103.720253,
    "tags": {
      "addr:city": "Singapore",
      "addr:country": "SG",
      "addr:housenumber": "201",
      "addr:postcode": "649845",
      "addr:street": "Boon Lay Way",
      "addr:unit": "#01-05",
      "amenity": "doctors",
      "branch": "Lakeside",
      "name": "My Doctor",
      "phone": "+65 62657270"
    },
    "source_query": "clinics"
  },
  {
    "osm_id": 4584797599,
    "osm_type": "node",
    "lat": 1.3491651,
    "lon": 103.7252922,
    "tags": {
      "addr:city": "Singapore",
      "addr:country": "SG",
      "addr:housenumber": "492",
      "addr:postcode": "640492",
      "addr:street": "Jurong West Street 41",
      "addr:unit": "#01-08",
      "amenity": "doctors",
      "branch": "Jurong West",
      "healthcare": "doctor",
      "name": "Loi+Wong Clinic & Surgery",
      "phone": "+65 65626676"
    },
    "source_query": "clinics"
  },
  {
    "osm_id": 4584797600,
    "osm_type": "node",
    "lat": 1.3486717,
    "lon": 103.6978948,
    "tags": {
      "addr:city": "Singapore",
      "addr:country": "SG",
      "addr:housenumber": "762",
      "addr:postcode": "640762",
      "addr:street": "Jurong West Street 75",
      "addr:unit": "#02-262",
      "amenity": "doctors",
      "healthcare": "doctor",
      "name": "Lee Family Clinic",
      "phone": "+65 67940217"
    },
    "source_query": "clinics"
  },
  {
    "osm_id": 4584799286,
    "osm_type": "node",
    "lat": 1.3506929,
    "lon": 103.7199211,
    "tags": {
      "addr:city": "Singapore",
      "addr:country": "SG",
      "addr:housenumber": "456",
      "addr:postcode": "640456",
      "addr:street": "Jurong West Street 41",
      "addr:unit": "#01-744",
      "amenity": "doctors",
      "branch": "Jurong West",
      "name": "Northeast Medical Centre",
      "phone": "+65 65630484"
    },
    "source_query": "clinics"
  },
  {
    "osm_id": 4584799287,
    "osm_type": "node",
    "lat": 1.3415481,
    "lon": 103.6910014,
    "tags": {
      "addr:city": "Singapore",
      "addr:housenumber": "959",
      "addr:postcode": "640959",
      "addr:street": "Jurong West Street 92",
      "addr:unit": "#01-162",
      "amenity": "doctors",
      "healthcare": "doctor",
      "name": "Nanyang Centre Clinic",
      "phone": "+65 67910962"
    },
    "source_query": "clinics"
  },
  {
    "osm_id": 4584799788,
    "osm_type": "node",
    "lat": 1.337197,
    "lon": 103.6973409,
    "tags": {
      "addr:city": "Singapore",
      "addr:country": "SG",
      "addr:housenumber": "651",
      "addr:postcode": "640651",
      "addr:street": "Jurong West Street 41",
      "addr:unit": "#01-06",
      "amenity": "doctors",
      "branch": "Pioneer",
      "healthcare": "doctor",
      "name": "Northeast Medical Centre",
      "phone": "+65 67907668"
    },
    "source_query": "clinics"
  },
  {
    "osm_id": 4584800914,
    "osm_type": "node",
    "lat": 1.3461364,
    "lon": 103.6974234,
    "tags": {
      "addr:city": "Singapore",
      "addr:country": "SG",
      "addr:housenumber": "728",
      "addr:postcode": "640728",
      "addr:street": "Jurong West Avenue 5",
      "addr:unit": "#01-K1",
      "amenity": "doctors",
      "name": "One Medical Clinic",
      "phone": "+65 67922143"
    },
    "source_query": "clinics"
  },
  {
    "osm_id": 4584802580,
    "osm_type": "node",
    "lat": 1.3454948,
    "lon": 103.6973409,
    "tags": {
      "addr:city": "Singapore",
      "addr:country": "SG",
      "addr:housenumber": "725",
      "addr:postcode": "640725",
      "addr:street": "Jurong West Avenue 5",
      "addr:unit": "#01-164",
      "amenity": "doctors",
      "name": "Pier Medical Centre",
      "phone": "+65 67915677"
    },
    "source_query": "clinics"
  },
  {
    "osm_id": 4584802581,
    "osm_type": "node",
    "lat": 1.3488909,
    "lon": 103.7244728,
    "tags": {
      "addr:city": "Singapore",
      "addr:country": "SG",
      "addr:housenumber": "498",
      "addr:postcode": "640498",
      "addr:street": "Jurong West Street 41",
      "addr:unit": "#01-430",
      "amenity": "doctors",
      "healthcare": "doctor",
      "name": "Oriental Family Clinic",
      "phone": "+65 65625519"
    },
    "source_query": "clinics"
  },
  {
    "osm_id": 4584804822,
    "osm_type": "node",
    "lat": 1.3401456,
    "lon": 103.7061135,
    "tags": {
      "addr:city": "Singapore",
      "addr:country": "SG",
      "addr:housename": "Jurong Point Shopping Centre",
      "addr:housenumber": "1",
      "addr:postcode": "648886",
      "addr:street": "Jurong West Central 2",
      "addr:unit": "#B1A-19D",
      "amenity": "doctors",
      "healthcare": "doctor",
      "name": "Raffles Medical",
      "phone": "+65 67900583"
    },
    "source_query": "clinics"
  },
  {
    "osm_id": 4584804823,
    "osm_type": "node",
    "lat": 1.3344934,
    "lon": 103.7207694,
    "tags": {
      "addr:city": "Singapore",
      "addr:country": "SG",
      "addr:housename": "Taman Jurong Shopping Centre",
      "addr:housenumber": "399",
      "addr:postcode": "610399",
      "addr:street": "Yung Sheng Road",
      "addr:unit": "#01-56",
      "amenity": "doctors",
      "branch": "Taman Jurong",
      "name": "Prohealth Medical Group",
      "phone": "+65 62682628"
    },
    "source_query": "clinics"
  },
  {
    "osm_id": 4584804824,
    "osm_type": "node",
    "lat": 1.3399395,
    "lon": 103.6997945,
    "tags": {
      "addr:city": "Singapore",
      "addr:country": "SG",
      "addr:housenumber": "601A",
      "addr:postcode": "641601",
      "addr:street": "Jurong West Street 62",
      "addr:unit": "#01-02",
      "amenity": "doctors",
      "branch": "Jurong West",
      "name": "Prohealth Medical Group",
      "phone": "+65 65158784"
    },
    "source_query": "clinics"
  },
  {
    "osm_id": 4584804825,
    "osm_type": "node",
    "lat": 1.3400951,
    "lon": 103.7059716,
    "tags": {
      "addr:city": "Singapore",
      "addr:country": "SG",
      "addr:housename": "Jurong Point Shopping Centre",
      "addr:housenumber": "1",
      "addr:postcode": "648886",
      "addr:street": "Jurong West Central 2",
      "addr:unit": "#B1A-20A",
      "amenity": "doctors",
      "branch": "Jurong Point",
      "healthcare": "doctor",
      "name": "Point Medical Group",
      "phone": "+65 67922370"
    },
    "source_query": "clinics"
  },
  {
    "osm_id": 4584806293,
    "osm_type": "node",
    "lat": 1.3503573,
    "lon": 103.7178464,
    "tags": {
      "addr:city": "Singapore",
      "addr:country": "SG",
      "addr:housenumber": "502",
      "addr:postcode": "640502",
      "addr:street": "Jurong West Avenue 1",
      "addr:unit": "#01-803",
      "amenity": "doctors",
      "branch": "Jurong West",
      "fax": "+65 68992642",
      "healthcare": "doctor",
      "name": "Silver Cross Medical",
      "opening_hours": "Mo-Fr 08:00-00:00;Sa, Su 08:00-22:00",
      "phone": "+65 68992141",
      "wheelchair": "limited"
    },
    "source_query": "clinics"
  },
  {
    "osm_id": 4584806294,
    "osm_type": "node",
    "lat": 1.3505812,
    "lon": 103.7229812,
    "tags": {
      "addr:city": "Singapore",
      "addr:country": "SG",
      "addr:housenumber": "463",
      "addr:postcode": "640463",
      "addr:street": "Jurong West Street 41",
      "addr:unit": "#01-560",
      "amenity": "doctors",
      "healthcare": "doctor",
      "name": "Shine Family Clinic",
      "phone": "+65 65637934"
    },
    "source_query": "clinics"
  },
  {
    "osm_id": 4584807524,
    "osm_type": "node",
    "lat": 1.3518816,
    "lon": 103.7247127,
    "tags": {
      "addr:city": "Singapore",
      "addr:country": "SG",
      "addr:housenumber": "429",
      "addr:postcode": "640429",
      "addr:street": "Jurong West Avenue 1",
      "addr:unit": "#01-318",
      "amenity": "doctors",
      "healthcare": "doctor",
      "name": "The Doctor's Clinic",
      "phone": "+65 65669901"
    },
    "source_query": "clinics"
  },
  {
    "osm_id": 4584807525,
    "osm_type": "node",
    "lat": 1.3495462,
    "lon": 103.7265472,
    "tags": {
      "addr:city": "Singapore",
      "addr:country": "SG",
      "addr:housenumber": "491",
      "addr:postcode": "640491",
      "addr:street": "Jurong West Avenue 1",
      "addr:unit": "#01-153",
      "amenity": "doctors",
      "name": "Sunshine Family Clinic",
      "phone": "+65 64256678"
    },
    "source_query": "clinics"
  },
  {
    "osm_id": 4584807526,
    "osm_type": "node",
    "lat": 1.3486841,
    "lon": 103.7241023,
    "tags": {
      "addr:city": "Singapore",
      "addr:country": "SG",
      "addr:housenumber": "498",
      "addr:postcode": "640498",
      "addr:street": "Jurong West Street 41",
      "addr:unit": "#01-466",
      "amenity": "doctors",
      "healthcare": "doctor",
      "name": "Sunnyvale Clinic & Surgery",
      "phone": "+65 65670554"
    },
    "source_query": "clinics"
  },
  {
    "osm_id": 4584807527,
    "osm_type": "node",
    "lat": 1.3475136,
    "lon": 103.7170846,
    "tags": {
      "addr:city": "Singapore",
      "addr:country": "SG",
      "addr:housenumber": "526",
      "addr:postcode": "640526",
      "addr:street": "Jurong West Street 52",
      "addr:unit": "#01-325",
      "amenity": "doctors",
      "healthcare": "doctor",
      "name": "TC Family Clinic",
      "phone": "+65 65666687"
    },
    "source_query": "clinics"
  },
  {
    "osm_id": 4584812844,
    "osm_type": "node",
    "lat": 1.3469236,
    "lon": 103.6929272,
    "tags": {
      "addr:city": "Singapore",
      "addr:country": "SG",
      "addr:housenumber": "853",
      "addr:postcode": "640853",
      "addr:street": "Jurong West Street 81",
      "addr:unit": "#01-333",
      "amenity": "doctors",
      "healthcare": "doctor",
      "name": "West Point Clinic",
      "phone": "+65 67913330"
    },
    "source_query": "clinics"
  },
  {
    "osm_id": 4599780491,
    "osm_type": "node",
    "lat": 1.3277349,
    "lon": 103.9213776,
    "tags": {
      "addr:city": "Singapore",
      "addr:country": "SG",
      "addr:housenumber": "351",
      "addr:postcode": "468982",
      "addr:street": "Chai Chee Street",
      "alt_name": "Econ Medicare Centre",
      "amenity": "clinic",
      "branch": "Uttamram",
      "healthcare": "clinic",
      "name": "SATA CommHealth Uttamram Medical Centre",
      "opening_hours": "Mo-Fr 8:00-17:30;Sa 8:00-13:30",
      "operator": "SATA CommHealth",
      "phone": "+65 6244 6688",
      "source": "Bing",
      "website": "https://www.sata.com.sg/"
    },
    "source_query": "clinics"
  },
  {
    "osm_id": 4619401089,
    "osm_type": "node",
    "lat": 1.3278759,
    "lon": 103.9211969,
    "tags": {
      "amenity": "clinic",
      "healthcare": "clinic",
      "name": "Sata",
      "name:en": "Sata"
    },
    "source_query": "clinics"
  },
  {
    "osm_id": 4621781812,
    "osm_type": "node",
    "lat": 1.3710916,
    "lon": 103.848313,
    "tags": {
      "amenity": "clinic",
      "healthcare": "clinic",
      "name": "OneDoctors"
    },
    "source_query": "clinics"
  },
  {
    "osm_id": 4621805804,
    "osm_type": "node",
    "lat": 1.4172444,
    "lon": 103.8345881,
    "tags": {
      "amenity": "clinic",
      "name": "OneDoctors"
    },
    "source_query": "clinics"
  },
  {
    "osm_id": 4621805805,
    "osm_type": "node",
    "lat": 1.3499221,
    "lon": 103.8730547,
    "tags": {
      "amenity": "clinic",
      "healthcare": "clinic",
      "name": "OneDoctors"
    },
    "source_query": "clinics"
  },
  {
    "osm_id": 4631657933,
    "osm_type": "node",
    "lat": 1.3024631,
    "lon": 103.7930402,
    "tags": {
      "addr:city": "Singapore",
      "addr:housenumber": "8",
      "addr:postcode": "138665",
      "addr:street": "Biomedical Grove",
      "amenity": "clinic",
      "healthcare": "clinic",
      "name": "Osteopathic Healthcare Pte Ltd"
    },
    "source_query": "clinics"
  },
  {
    "osm_id": 4631661761,
    "osm_type": "node",
    "lat": 1.3023049,
    "lon": 103.7930458,
    "tags": {
      "addr:city": "Singapore",
      "addr:housenumber": "8",
      "addr:postcode": "138648",
      "addr:street": "Biomedical Grove",
      "amenity": "clinic",
      "healthcare": "clinic",
      "name": "The Rehab Practice (Paediatric) Pte Ltd",
      "opening_hours": "09:15-17:30"
    },
    "source_query": "clinics"
  },
  {
    "osm_id": 4633815489,
    "osm_type": "node",
    "lat": 1.3023032,
    "lon": 103.7932408,
    "tags": {
      "amenity": "clinic",
      "healthcare": "clinic",
      "name": "Ear, Nose & Throat Specialist Clinic"
    },
    "source_query": "clinics"
  },
  {
    "osm_id": 4634033881,
    "osm_type": "node",
    "lat": 1.3290692,
    "lon": 103.8869128,
    "tags": {
      "amenity": "clinic",
      "healthcare": "clinic",
      "name": "Lifecare Medical Centre"
    },
    "source_query": "clinics"
  },
  {
    "osm_id": 4634041220,
    "osm_type": "node",
    "lat": 1.3288707,
    "lon": 103.8871937,
    "tags": {
      "amenity": "clinic",
      "healthcare": "clinic",
      "name": "Ang Liang Medical Hall"
    },
    "source_query": "clinics"
  },
  {
    "osm_id": 4664735179,
    "osm_type": "node",
    "lat": 1.3620169,
    "lon": 103.952748,
    "tags": {
      "amenity": "clinic",
      "healthcare": "clinic",
      "name": "Cecilia Family Clinic & Surgery"
    },
    "source_query": "clinics"
  },
  {
    "osm_id": 4664735180,
    "osm_type": "node",
    "lat": 1.3619964,
    "lon": 103.9534674,
    "tags": {
      "amenity": "clinic",
      "healthcare": "clinic",
      "name": "Choong's Clinic"
    },
    "source_query": "clinics"
  },
  {
    "osm_id": 4670075217,
    "osm_type": "node",
    "lat": 1.3521815,
    "lon": 103.954022,
    "tags": {
      "amenity": "clinic",
      "healthcare": "clinic",
      "source": "Kaart Ground Survey 2017"
    },
    "source_query": "clinics"
  },
  {
    "osm_id": 4682762243,
    "osm_type": "node",
    "lat": 1.3119584,
    "lon": 103.922067,
    "tags": {
      "addr:street": "East Coast Road",
      "amenity": "clinic",
      "healthcare": "clinic",
      "name": "Frankel Clinic",
      "source": "Kaart Ground Survey 2017"
    },
    "source_query": "clinics"
  },
  {
    "osm_id": 4682762244,
    "osm_type": "node",
    "lat": 1.3119289,
    "lon": 103.9219988,
    "tags": {
      "addr:street": "East Coast Road",
      "amenity": "clinic",
      "healthcare": "clinic",
      "name": "Liang Clinic",
      "source": "Kaart Ground Survey 2017"
    },
    "source_query": "clinics"
  },
  {
    "osm_id": 4683756262,
    "osm_type": "node",
    "lat": 1.3132177,
    "lon": 103.9293425,
    "tags": {
      "addr:street": "Upper East Coast Road",
      "amenity": "clinic",
      "healthcare": "clinic",
      "name": "Family Clinic",
      "source": "Kaart Ground Survey 2017"
    },
    "source_query": "clinics"
  },
  {
    "osm_id": 4684139323,
    "osm_type": "node",
    "lat": 1.3062498,
    "lon": 103.9056588,
    "tags": {
      "addr:street": "East Coast Road",
      "amenity": "clinic",
      "healthcare": "clinic",
      "name": "Thomson Women's Centre",
      "source": "Kaart Ground Survey 2017"
    },
    "source_query": "clinics"
  },
  {
    "osm_id": 4685494137,
    "osm_type": "node",
    "lat": 1.3275353,
    "lon": 103.9347244,
    "tags": {
      "addr:street": "Bedok North Street 1",
      "amenity": "clinic",
      "healthcare": "clinic",
      "name": "Bedok Family Clinic & Surgery",
      "source": "Kaart Ground Survey 2017"
    },
    "source_query": "clinics"
  },
  {
    "osm_id": 4687674203,
    "osm_type": "node",
    "lat": 1.3331731,
    "lon": 103.8787728,
    "tags": {
      "addr:city": "Singapore",
      "addr:housenumber": "389",
      "addr:postcode": "367874",
      "addr:street": "Upper Ajunied Road",
      "amenity": "doctors",
      "healthcare": "doctor",
      "level": "0",
      "name": "GIFT Medical Centre",
      "opening_hours": "Mo-Fr 08:30-12:15,14:00-16:15,19:00-20:30; Sa 09:00-12:15, Su off",
      "phone": "+65 6286 1923",
      "source": "Kaart Ground Survey 2017"
    },
    "source_query": "clinics"
  },
  {
    "osm_id": 4689375096,
    "osm_type": "node",
    "lat": 1.3181617,
    "lon": 103.9071018,
    "tags": {
      "addr:street": "Changi Road",
      "amenity": "clinic",
      "healthcare": "clinic",
      "name": "Lim Clinic",
      "source": "Kaart Ground Survey 2017",
      "wheelchair": "no"
    },
    "source_query": "clinics"
  },
  {
    "osm_id": 4689443914,
    "osm_type": "node",
    "lat": 1.3149067,
    "lon": 103.8905887,
    "tags": {
      "addr:street": "Geylang Road",
      "amenity": "clinic",
      "healthcare": "clinic",
      "name": "M. Lam Clinic",
      "source": "Kaart Ground Survey 2017"
    },
    "source_query": "clinics"
  },
  {
    "osm_id": 4689499454,
    "osm_type": "node",
    "lat": 1.31277,
    "lon": 103.8794922,
    "tags": {
      "addr:street": "Geylang Road",
      "amenity": "clinic",
      "healthcare": "clinic",
      "name": "Xinhuo Medical Clinic",
      "source": "Kaart Ground Survey 2017"
    },
    "source_query": "clinics"
  },
  {
    "osm_id": 4689590455,
    "osm_type": "node",
    "lat": 1.3167538,
    "lon": 103.9016327,
    "tags": {
      "addr:street": "Changi Road",
      "amenity": "clinic",
      "healthcare": "clinic",
      "name": "Geylang Serai Clinic",
      "source": "Kaart Ground Survey 2017"
    },
    "source_query": "clinics"
  },
  {
    "osm_id": 4695847066,
    "osm_type": "node",
    "lat": 1.3150317,
    "lon": 103.8829388,
    "tags": {
      "addr:street": "Sims Avenue",
      "amenity": "clinic",
      "healthcare": "clinic",
      "name": "ECM X-Ray Centre PTE LTD",
      "source": "Kaart Ground Survey 2017"
    },
    "source_query": "clinics"
  },
  {
    "osm_id": 4695847067,
    "osm_type": "node",
    "lat": 1.3149644,
    "lon": 103.8826951,
    "tags": {
      "addr:street": "Sims Avenue",
      "amenity": "clinic",
      "healthcare": "clinic",
      "name": "ECM Clinic & Surgery PTE LTD",
      "source": "Kaart Ground Survey 2017",
      "wheelchair": "limited"
    },
    "source_query": "clinics"
  },
  {
    "osm_id": 4696036288,
    "osm_type": "node",
    "lat": 1.3213131,
    "lon": 103.9027504,
    "tags": {
      "addr:street": "Eunos Crescent",
      "amenity": "clinic",
      "healthcare": "clinic",
      "name": "Crescent Clinic & Surgery",
      "source": "Kaart Ground Survey 2017"
    },
    "source_query": "clinics"
  },
  {
    "osm_id": 4696246671,
    "osm_type": "node",
    "lat": 1.319258,
    "lon": 103.8866552,
    "tags": {
      "addr:housenumber": "119",
      "addr:street": "Geylang East Central",
      "amenity": "clinic",
      "healthcare": "clinic",
      "name": "Central Clinic",
      "source": "Kaart Ground Survey 2017"
    },
    "source_query": "clinics"
  },
  {
    "osm_id": 4696283877,
    "osm_type": "node",
    "lat": 1.3727614,
    "lon": 103.8989326,
    "tags": {
      "addr:street": "Upper Serangoon Road",
      "amenity": "doctors",
      "healthcare": "doctor",
      "name": "Medical Clinic",
      "source": "Kaart Ground Survey 2017"
    },
    "source_query": "clinics"
  },
  {
    "osm_id": 4697476922,
    "osm_type": "node",
    "lat": 1.2773807,
    "lon": 103.8318569,
    "tags": {
      "addr:city": "Singapore",
      "addr:country": "SG",
      "addr:housenumber": "149",
      "addr:postcode": "160149",
      "addr:street": "Silat Avenue",
      "addr:unit": "01-54",
      "amenity": "doctors",
      "fax": "+65 6275 4935",
      "healthcare": "doctor",
      "name": "Mao Medical Center & Surgery",
      "opening_hours": "Mo-Fr 09:00-12:30,14:00-16:30,18:30-20:30; Sa,Su 09:00-12:30; PH off",
      "payment:coins": "yes",
      "payment:cryptocurrencies": "no",
      "payment:electronic_purses": "no",
      "payment:mastercard": "yes",
      "payment:notes": "yes",
      "payment:visa": "yes",
      "payment:visa_debit": "yes",
      "phone": "+65 6278 1910",
      "wheelchair": "no"
    },
    "source_query": "clinics"
  },
  {
    "osm_id": 4701839583,
    "osm_type": "node",
    "lat": 1.3725723,
    "lon": 103.8856713,
    "tags": {
      "addr:street": "Hougang Avenue 4",
      "amenity": "clinic",
      "healthcare": "clinic",
      "level": "0",
      "name": "Central 24-Hr Clinic (Hougang)"
    },
    "source_query": "clinics"
  },
  {
    "osm_id": 4701887198,
    "osm_type": "node",
    "lat": 1.309495,
    "lon": 103.9119627,
    "tags": {
      "addr:street": "Telok Kurau Court",
      "amenity": "clinic",
      "healthcare": "clinic",
      "name": "Siglap Clinic",
      "source": "Kaart Ground Survey 2017",
      "wheelchair": "yes"
    },
    "source_query": "clinics"
  },
  {
    "osm_id": 4702309475,
    "osm_type": "node",
    "lat": 1.3105762,
    "lon": 103.9016544,
    "tags": {
      "addr:housenumber": "259",
      "addr:street": "Joo Chiat Road",
      "amenity": "clinic",
      "healthcare": "clinic",
      "name": "Wong Pang Ong Bone Injury Specialists",
      "source": "Kaart Ground Survey 2017"
    },
    "source_query": "clinics"
  },
  {
    "osm_id": 4702468229,
    "osm_type": "node",
    "lat": 1.3070444,
    "lon": 103.9040604,
    "tags": {
      "addr:street": "Joo Chiat Road",
      "amenity": "clinic",
      "healthcare": "clinic",
      "name": "EstheClinic Paris",
      "source": "Kaart Ground Survey 2017"
    },
    "source_query": "clinics"
  },
  {
    "osm_id": 4703167425,
    "osm_type": "node",
    "lat": 1.3784112,
    "lon": 103.7638595,
    "tags": {
      "amenity": "clinic",
      "healthcare": "clinic",
      "name": "Raffles Medical",
      "wheelchair": "yes"
    },
    "source_query": "clinics"
  },
  {
    "osm_id": 4703885628,
    "osm_type": "node",
    "lat": 1.3065917,
    "lon": 103.9047052,
    "tags": {
      "addr:street": "Joo Chiat Road",
      "amenity": "clinic",
      "healthcare": "clinic",
      "name": "Lee Clinic",
      "source": "Kaart Ground Survey 2017"
    },
    "source_query": "clinics"
  },
  {
    "osm_id": 4703890889,
    "osm_type": "node",
    "lat": 1.3544962,
    "lon": 103.8791387,
    "tags": {
      "addr:street": "Upper Serangoon Road",
      "amenity": "clinic",
      "healthcare": "clinic",
      "name": "Rhema",
      "source": "Kaart Ground Survey 2017"
    },
    "source_query": "clinics"
  },
  {
    "osm_id": 4712211965,
    "osm_type": "node",
    "lat": 1.3620171,
    "lon": 103.8856749,
    "tags": {
      "addr:street": "Simon Road",
      "amenity": "clinic",
      "healthcare": "clinic",
      "name": "FHC Dialysis Centre Pte Ltd",
      "source": "Kaart Ground Survey 2017"
    },
    "source_query": "clinics"
  },
  {
    "osm_id": 4712230311,
    "osm_type": "node",
    "lat": 1.289268,
    "lon": 103.8171078,
    "tags": {
      "addr:unit": "07",
      "amenity": "clinic",
      "healthcare": "clinic",
      "level": "0",
      "name": "Redwood Clinic And Surgery",
      "name:zh": "\u7ea2\u6749\u8bca\u6240"
    },
    "source_query": "clinics"
  },
  {
    "osm_id": 4712343575,
    "osm_type": "node",
    "lat": 1.3623677,
    "lon": 103.8877735,
    "tags": {
      "addr:street": "Upper Serangoon Road",
      "amenity": "doctors",
      "fixme": "name",
      "healthcare": "doctor",
      "name": "KHOE",
      "source": "Kaart Ground Survey 2017",
      "wheelchair": "limited"
    },
    "source_query": "clinics"
  },